{"id":29849,"ident":"SAWT","type":"small_airport","name":"28 de Noviembre Airport","latitude_deg":-51.605,"longitude_deg":-72.2203,"elevation_ft":909,"continent":"SA","iso_country":"AR","iso_region":"AR-Z","municipality":"Rio Turbio","scheduled_service":"yes","icao_code":"SAWT","iata_code":"RYO","gps_code":"SAWT","local_code":"BIO","home_link":null,"wikipedia_link":"https://en.wikipedia.org/wiki/Rio_Turbio_Airport","keywords":"El Turbio"}
{"id":4007,"ident":"LECO","type":"medium_airport","name":"A Coruña Airport","latitude_deg":43.302101,"longitude_deg":-8.37726,"elevation_ft":326,"continent":"EU","iso_country":"ES","iso_region":"ES-GA","municipality":"Culleredo","scheduled_service":"yes","icao_code":"LECO","iata_code":"LCG","gps_code":"LECO","local_code":null,"home_link":"https://www.aena.es/en/a-coruna.html","wikipedia_link":"https://en.wikipedia.org/wiki/A_Coru%C3%B1a_Airport","keywords":"The Groyne, La Coruña"}
{"id":6409,"ident":"TTCP","type":"medium_airport","name":"A.N.R. Robinson International Airport","latitude_deg":11.1497,"longitude_deg":-60.832199,"elevation_ft":38,"continent":"NA","iso_country":"TT","iso_region":"TT-TOB","municipality":"Scarborough","scheduled_service":"yes","icao_code":"TTCP","iata_code":"TAB","gps_code":"TTCP","local_code":null,"home_link":"https://tntairports.com/anr-robinson-international-airport/#","wikipedia_link":"https://en.wikipedia.org/wiki/A.N.R._Robinson_International_Airport","keywords":"Tobago-Crown Point Airport"}
{"id":41475,"ident":"WATA","type":"small_airport","name":"AA Bere Tallo (Haliwen) Airport","latitude_deg":-9.074841,"longitude_deg":124.903285,"elevation_ft":1027,"continent":"AS","iso_country":"ID","iso_region":"ID-NT","municipality":"Atambua","scheduled_service":"yes","icao_code":"WATA","iata_code":"ABU","gps_code":"WATA","local_code":null,"home_link":null,"wikipedia_link":"https://en.wikipedia.org/wiki/Haliwen_Airport","keywords":"WRKA"}
{"id":2562,"ident":"EKYT","type":"medium_airport","name":"Aalborg Airport","latitude_deg":57.094763,"longitude_deg":9.84993,"elevation_ft":10,"continent":"EU","iso_country":"DK","iso_region":"DK-81","municipality":"Aalborg","scheduled_service":"yes","icao_code":"EKYT","iata_code":"AAL","gps_code":"EKYT","local_code":null,"home_link":"http://www.aal.dk","wikipedia_link":"https://en.wikipedia.org/wiki/Aalborg_Airport","keywords":null}
{"id":43214,"ident":"BGAG","type":"heliport","name":"Aappilattoq Heliport","latitude_deg":72.88703,"longitude_deg":-55.596287,"elevation_ft":42,"continent":"NA","iso_country":"GL","iso_region":"GL-AV","municipality":"Aappilattoq","scheduled_service":"yes","icao_code":null,"iata_code":"AOQ","gps_code":"BGAG","local_code":"AAP","home_link":null,"wikipedia_link":"https://en.wikipedia.org/wiki/Aappilattoq_Heliport_(Avannaata)","keywords":null}
{"id":44046,"ident":"BGAQ","type":"heliport","name":"Aappilattoq Heliport","latitude_deg":60.148357,"longitude_deg":-44.286916,"elevation_ft":30,"continent":"NA","iso_country":"GL","iso_region":"GL-KU","municipality":"Aappilattoq","scheduled_service":"yes","icao_code":null,"iata_code":"QUV","gps_code":"BGAQ","local_code":null,"home_link":null,"wikipedia_link":"https://en.wikipedia.org/wiki/Aappilattoq_Heliport_(Kujalleq)","keywords":"Augpilagtoq"}
{"id":2540,"ident":"EKAH","type":"medium_airport","name":"Aarhus Airport","latitude_deg":56.303331,"longitude_deg":10.618286,"elevation_ft":82,"continent":"EU","iso_country":"DK","iso_region":"DK-82","municipality":"Aarhus","scheduled_service":"yes","icao_code":"EKAH","iata_code":"AAR","gps_code":"EKAH","local_code":null,"home_link":"http://www.aar.dk/default.asp?id=87","wikipedia_link":"https://en.wikipedia.org/wiki/Aarhus_Airport","keywords":null}
{"id":31697,"ident":"BGAA","type":"medium_airport","name":"Aasiaat Airport","latitude_deg":68.721802,"longitude_deg":-52.784698,"elevation_ft":74,"continent":"NA","iso_country":"GL","iso_region":"GL-QK","municipality":"Aasiaat","scheduled_service":"yes","icao_code":"BGAA","iata_code":"JEG","gps_code":"BGAA","local_code":null,"home_link":"http://airgreenland.com/om_rejsen/efter_rejsen/din_destination_/aasiaat/","wikipedia_link":"https://en.wikipedia.org/wiki/Aasiaat_Airport","keywords":"Mittarfik Aasiaat, Aasiaat Lufthavn, Egedesminde"}
{"id":3162,"ident":"HADR","type":"medium_airport","name":"Aba Tenna Dejazmach Yilma International Airport","latitude_deg":9.624699592590332,"longitude_deg":41.85419845581055,"elevation_ft":3827,"continent":"AF","iso_country":"ET","iso_region":"ET-DD","municipality":"Dire Dawa","scheduled_service":"yes","icao_code":"HADR","iata_code":"DIR","gps_code":"HADR","local_code":null,"home_link":null,"wikipedia_link":"https://en.wikipedia.org/wiki/Aba_Tenna_Dejazmach_Yilma_International_Airport","keywords":null}
{"id":5130,"ident":"OIAA","type":"medium_airport","name":"Abadan Airport","latitude_deg":30.367887,"longitude_deg":48.230075,"elevation_ft":10,"continent":"AS","iso_country":"IR","iso_region":"IR-06","municipality":"Abadan","scheduled_service":"yes","icao_code":"OIAA","iata_code":"ABD","gps_code":"OIAA","local_code":null,"home_link":null,"wikipedia_link":"https://en.wikipedia.org/wiki/Abadan_Airport","keywords":null}
{"id":6503,"ident":"UNAA","type":"medium_airport","name":"Abakan International Airport","latitude_deg":53.740002,"longitude_deg":91.385002,"elevation_ft":831,"continent":"AS","iso_country":"RU","iso_region":"RU-KK","municipality":"Abakan","scheduled_service":"yes","icao_code":"UNAA","iata_code":"ABA","gps_code":"UNAA","local_code":null,"home_link":null,"wikipedia_link":"https://en.wikipedia.org/wiki/Abakan_International_Airport","keywords":"УНАА, Абакан"}
{"id":1969,"ident":"CYXX","type":"medium_airport","name":"Abbotsford International Airport","latitude_deg":49.025299,"longitude_deg":-122.361,"elevation_ft":195,"continent":"NA","iso_country":"CA","iso_region":"CA-BC","municipality":"Abbotsford","scheduled_service":"yes","icao_code":"CYXX","iata_code":"YXX","gps_code":"CYXX","local_code":null,"home_link":"http://www.abbotsfordairport.ca/","wikipedia_link":"https://en.wikipedia.org/wiki/Abbotsford_International_Airport","keywords":null}
{"id":26785,"ident":"WARA","type":"medium_airport","name":"Abdul Rachman Saleh Airport","latitude_deg":-7.929099,"longitude_deg":112.714233,"elevation_ft":1726,"continent":"AS","iso_country":"ID","iso_region":"ID-JI","municipality":"Malang","scheduled_service":"yes","icao_code":"WARA","iata_code":"MLG","gps_code":"WARA","local_code":null,"home_link":null,"wikipedia_link":"https://en.wikipedia.org/wiki/Abdul_Rachman_Saleh_Airport","keywords":"WIAS, Malang, Singosari"}
{"id":2996,"ident":"FTTC","type":"medium_airport","name":"Abeche Airport","latitude_deg":13.847,"longitude_deg":20.844299,"elevation_ft":1788,"continent":"AF","iso_country":"TD","iso_region":"TD-OD","municipality":"Abeche","scheduled_service":"yes","icao_code":"FTTC","iata_code":"AEH","gps_code":"FTTC","local_code":null,"home_link":null,"wikipedia_link":"https://en.wikipedia.org/wiki/Ab%C3%A9ch%C3%A9_Airport","keywords":null}
{"id":3260,"ident":"HTZA","type":"large_airport","name":"Abeid Amani Karume International Airport","latitude_deg":-6.22202,"longitude_deg":39.224899,"elevation_ft":54,"continent":"AF","iso_country":"TZ","iso_region":"TZ-07","municipality":"Zanzibar","scheduled_service":"yes","icao_code":"HTZA","iata_code":"ZNZ","gps_code":"HTZA","local_code":null,"home_link":null,"wikipedia_link":"https://en.wikipedia.org/wiki/Zanzibar_International_Airport","keywords":"HTAK, Zanzibar Airport, Kiembi Samaki"}
{"id":4854,"ident":"MUSC","type":"medium_airport","name":"Abel Santamaria Airport","latitude_deg":22.492201,"longitude_deg":-79.943604,"elevation_ft":338,"continent":"NA","iso_country":"CU","iso_region":"CU-05","municipality":"Santa Clara","scheduled_service":"yes","icao_code":"MUSC","iata_code":"SNU","gps_code":"MUSC","local_code":null,"home_link":null,"wikipedia_link":"https://en.wikipedia.org/wiki/Abel_Santa_Mar%C3%ADa_Airport","keywords":null}
{"id":2459,"ident":"EGPD","type":"medium_airport","name":"Aberdeen International Airport","latitude_deg":57.2019,"longitude_deg":-2.19778,"elevation_ft":215,"continent":"EU","iso_country":"GB","iso_region":"GB-SCT","municipality":"Aberdeen","scheduled_service":"yes","icao_code":"EGPD","iata_code":"ABZ","gps_code":"EGPD","local_code":null,"home_link":"http://www.aberdeenairport.com/","wikipedia_link":"https://en.wikipedia.org/wiki/Aberdeen_Airport","keywords":"Dyce"}
{"id":3358,"ident":"KABR","type":"medium_airport","name":"Aberdeen Regional Airport","latitude_deg":45.449100494384766,"longitude_deg":-98.42179870605469,"elevation_ft":1302,"continent":"NA","iso_country":"US","iso_region":"US-SD","municipality":"Aberdeen","scheduled_service":"yes","icao_code":"KABR","iata_code":"ABR","gps_code":"KABR","local_code":"ABR","home_link":null,"wikipedia_link":"https://en.wikipedia.org/wiki/Aberdeen_Regional_Airport","keywords":null}
{"id":5082,"ident":"OEAB","type":"large_airport","name":"Abha International Airport","latitude_deg":18.2404,"longitude_deg":42.656601,"elevation_ft":6858,"continent":"AS","iso_country":"SA","iso_region":"SA-14","municipality":"Abha","scheduled_service":"yes","icao_code":"OEAB","iata_code":"AHB","gps_code":"OEAB","local_code":null,"home_link":"https://abha-airport.com","wikipedia_link":"https://en.wikipedia.org/wiki/Abha_International_Airport","keywords":"Abha International Airport"}
{"id":3357,"ident":"KABI","type":"medium_airport","name":"Abilene Regional Airport","latitude_deg":32.4113006592,"longitude_deg":-99.68190002440001,"elevation_ft":1791,"continent":"NA","iso_country":"US","iso_region":"US-TX","municipality":"Abilene","scheduled_service":"yes","icao_code":"KABI","iata_code":"ABI","gps_code":"KABI","local_code":"ABI","home_link":null,"wikipedia_link":"https://en.wikipedia.org/wiki/Abilene_Regional_Airport","keywords":null}
{"id":4701,"ident":"MMCS","type":"medium_airport","name":"Abraham González International Airport","latitude_deg":31.63610076904297,"longitude_deg":-106.42900085449219,"elevation_ft":3904,"continent":"NA","iso_country":"MX","iso_region":"MX-CHH","municipality":"Ciudad Juárez","scheduled_service":"yes","icao_code":"MMCS","iata_code":"CJS","gps_code":"MMCS","local_code":null,"home_link":null,"wikipedia_link":"https://en.wikipedia.org/wiki/Abraham_Gonz%C3%A1lez_International_Airport","keywords":null}
{"id":3897,"ident":"KSPI","type":"medium_airport","name":"Abraham Lincoln Capital Airport","latitude_deg":39.844101,"longitude_deg":-89.677902,"elevation_ft":598,"continent":"NA","iso_country":"US","iso_region":"US-IL","municipality":"Springfield","scheduled_service":"yes","icao_code":"KSPI","iata_code":"SPI","gps_code":"KSPI","local_code":"SPI","home_link":null,"wikipedia_link":"https://en.wikipedia.org/wiki/Abraham_Lincoln_Capital_Airport","keywords":null}
{"id":4314,"ident":"LIBP","type":"medium_airport","name":"Abruzzo Airport","latitude_deg":42.431702,"longitude_deg":14.1811,"elevation_ft":48,"continent":"EU","iso_country":"IT","iso_region":"IT-65","municipality":"Pescara","scheduled_service":"yes","icao_code":"LIBP","iata_code":"PSR","gps_code":"LIBP","local_code":"PE01","home_link":"http://www.abruzzo-airport.it/eng/index.php","wikipedia_link":"https://en.wikipedia.org/wiki/Abruzzo_Airport","keywords":"Pescara, Abruzzo Pasquale Liberi International"}
{"id":5138,"ident":"OIBA","type":"medium_airport","name":"Abu Musa Island Airport","latitude_deg":25.8757,"longitude_deg":55.033001,"elevation_ft":23,"continent":"AS","iso_country":"IR","iso_region":"IR-22","municipality":"Abu Musa","scheduled_service":"yes","icao_code":"OIBA","iata_code":"AEU","gps_code":"OIBA","local_code":null,"home_link":null,"wikipedia_link":"https://en.wikipedia.org/wiki/Abu_Musa_Airport","keywords":null}
{"id":3181,"ident":"HEBL","type":"medium_airport","name":"Abu Simbel Airport","latitude_deg":22.367657,"longitude_deg":31.609962,"elevation_ft":614,"continent":"AF","iso_country":"EG","iso_region":"EG-ASN","municipality":"Abu Simbel","scheduled_service":"yes","icao_code":"HEBL","iata_code":"ABS","gps_code":"HEBL","local_code":null,"home_link":null,"wikipedia_link":"https://en.wikipedia.org/wiki/Abu_Simbel_Airport","keywords":null}
{"id":26790,"ident":"WARS","type":"medium_airport","name":"Achmad Yani Airport","latitude_deg":-6.970732,"longitude_deg":110.373244,"elevation_ft":10,"continent":"AS","iso_country":"ID","iso_region":"ID-JT","municipality":"Semarang","scheduled_service":"yes","icao_code":"WAHS","iata_code":"SRG","gps_code":"WAHS","local_code":null,"home_link":"https://www.ahmadyani-airport.com/id","wikipedia_link":"https://en.wikipedia.org/wiki/Achmad_Yani_Airport","keywords":"WIIS, WARS"}
{"id":16092,"ident":"PADK","type":"medium_airport","name":"Adak Airport","latitude_deg":51.883564,"longitude_deg":-176.642783,"elevation_ft":18,"continent":"NA","iso_country":"US","iso_region":"US-AK","municipality":"Adak","scheduled_service":"yes","icao_code":"PADK","iata_code":"ADK","gps_code":"PADK","local_code":"ADK","home_link":null,"wikipedia_link":"https://en.wikipedia.org/wiki/Adak_Airport","keywords":null}
{"id":26542,"ident":"VIAX","type":"small_airport","name":"Adampur Airport","latitude_deg":31.4338,"longitude_deg":75.758797,"elevation_ft":775,"continent":"AS","iso_country":"IN","iso_region":"IN-PB","municipality":"Adampur","scheduled_service":"yes","icao_code":"VIAX","iata_code":"AIP","gps_code":"VIAX","local_code":null,"home_link":null,"wikipedia_link":"https://en.wikipedia.org/wiki/Adampur_Air_Force_Base","keywords":"Adampur Air Force Station"}
{"id":4512,"ident":"LTAF","type":"medium_airport","name":"Adana Şakirpaşa Airport","latitude_deg":36.982201,"longitude_deg":35.280399,"elevation_ft":65,"continent":"AS","iso_country":"TR","iso_region":"TR-01","municipality":"Seyhan","scheduled_service":"yes","icao_code":"LTAF","iata_code":"ADA","gps_code":"LTAF","local_code":null,"home_link":null,"wikipedia_link":"https://en.wikipedia.org/wiki/Adana_%C5%9Eakirpa%C5%9Fa_Airport","keywords":"Şakirpaşa, Sakirpasa"}
{"id":3157,"ident":"HAAB","type":"large_airport","name":"Addis Ababa Bole International Airport","latitude_deg":8.97789,"longitude_deg":38.799301,"elevation_ft":7630,"continent":"AF","iso_country":"ET","iso_region":"ET-AA","municipality":"Addis Ababa","scheduled_service":"yes","icao_code":"HAAB","iata_code":"ADD","gps_code":"HAAB","local_code":null,"home_link":"http://www.ethiopianairports.com","wikipedia_link":"https://en.wikipedia.org/wiki/Bole_International_Airport","keywords":"Haile Selassie I, Bole International Airport"}
{"id":27096,"ident":"YPAD","type":"large_airport","name":"Adelaide International Airport","latitude_deg":-34.947512,"longitude_deg":138.533393,"elevation_ft":20,"continent":"OC","iso_country":"AU","iso_region":"AU-SA","municipality":"Adelaide","scheduled_service":"yes","icao_code":"YPAD","iata_code":"ADL","gps_code":"YPAD","local_code":null,"home_link":null,"wikipedia_link":"https://en.wikipedia.org/wiki/Adelaide_International_Airport","keywords":null}
{"id":31899,"ident":"HCMM","type":"medium_airport","name":"Aden Adde International Airport","latitude_deg":2.0144400596618652,"longitude_deg":45.3046989440918,"elevation_ft":29,"continent":"AF","iso_country":"SO","iso_region":"SO-BN","municipality":"Mogadishu","scheduled_service":"yes","icao_code":"HCMM","iata_code":"MGQ","gps_code":"HCMM","local_code":null,"home_link":null,"wikipedia_link":"https://en.wikipedia.org/wiki/Aden_Adde_International_Airport","keywords":"HCCM"}
{"id":5311,"ident":"OYAA","type":"medium_airport","name":"Aden International Airport","latitude_deg":12.8295,"longitude_deg":45.028801,"elevation_ft":7,"continent":"AS","iso_country":"YE","iso_region":"YE-AD","municipality":"Aden","scheduled_service":"yes","icao_code":"OYAA","iata_code":"ADE","gps_code":"OYAA","local_code":null,"home_link":null,"wikipedia_link":"https://en.wikipedia.org/wiki/Aden_International_Airport","keywords":"RAF Khormaksar"}
{"id":3890,"ident":"KSLK","type":"medium_airport","name":"Adirondack Regional Airport","latitude_deg":44.38691,"longitude_deg":-74.204629,"elevation_ft":1663,"continent":"NA","iso_country":"US","iso_region":"US-NY","municipality":"Saranac Lake","scheduled_service":"yes","icao_code":"KSLK","iata_code":"SLK","gps_code":"KSLK","local_code":"SLK","home_link":null,"wikipedia_link":"https://en.wikipedia.org/wiki/Adirondack_Regional_Airport","keywords":null}
{"id":26788,"ident":"WARQ","type":"medium_airport","name":"Adisumarmo Airport","latitude_deg":-7.516044,"longitude_deg":110.757492,"elevation_ft":421,"continent":"AS","iso_country":"ID","iso_region":"ID-JT","municipality":"Surakarta","scheduled_service":"yes","icao_code":"WAHQ","iata_code":"SOC","gps_code":"WAHQ","local_code":null,"home_link":"https://adisumarmo-airport.com/en","wikipedia_link":"https://en.wikipedia.org/wiki/Adisumarmo_Airport","keywords":"WRSQ, WARQ, Adi Soemarmo, Adi Sumarmo"}
{"id":26787,"ident":"WARJ","type":"medium_airport","name":"Adisutjipto Airport","latitude_deg":-7.78818,"longitude_deg":110.431999,"elevation_ft":379,"continent":"AS","iso_country":"ID","iso_region":"ID-YO","municipality":"Yogyakarta","scheduled_service":"yes","icao_code":"WAHH","iata_code":"JOG","gps_code":"WAHH","local_code":null,"home_link":"http://adisutjipto-airport.co.id/","wikipedia_link":"https://en.wikipedia.org/wiki/Adisutjipto_Airport","keywords":"WIIJ, WARJ, Adisucipto"}
{"id":4533,"ident":"LTBJ","type":"large_airport","name":"Adnan Menderes International Airport","latitude_deg":38.2924,"longitude_deg":27.157,"elevation_ft":412,"continent":"AS","iso_country":"TR","iso_region":"TR-35","municipality":"Gaziemir","scheduled_service":"yes","icao_code":"LTBJ","iata_code":"ADB","gps_code":"LTBJ","local_code":null,"home_link":"http://www.adnanmenderesairport.com","wikipedia_link":"https://en.wikipedia.org/wiki/Adnan_Menderes_Airport","keywords":"İzmir"}
{"id":4760,"ident":"MMTO","type":"medium_airport","name":"Adolfo López Mateos International Airport","latitude_deg":19.3369,"longitude_deg":-99.56583,"elevation_ft":8466,"continent":"NA","iso_country":"MX","iso_region":"MX-MEX","municipality":"Toluca","scheduled_service":"yes","icao_code":"MMTO","iata_code":"TLC","gps_code":"MMTO","local_code":null,"home_link":null,"wikipedia_link":"https://en.wikipedia.org/wiki/Lic._Adolfo_L%C3%B3pez_Mateos_International_Airport","keywords":"Aeropuerto Internacional Adolfo López Mateos"}
{"id":4019,"ident":"LEMD","type":"large_airport","name":"Adolfo Suárez Madrid–Barajas Airport","latitude_deg":40.471926,"longitude_deg":-3.56264,"elevation_ft":1998,"continent":"EU","iso_country":"ES","iso_region":"ES-MD","municipality":"Madrid","scheduled_service":"yes","icao_code":"LEMD","iata_code":"MAD","gps_code":"LEMD","local_code":null,"home_link":"https://www.aena.es/en/adolfo-suarez-madrid-barajas.html","wikipedia_link":"https://en.wikipedia.org/wiki/Adolfo_Su%C3%A1rez_Madrid%E2%80%93Barajas_Airport","keywords":"Leganés, Madrid Barajas International Airport"}
{"id":321014,"ident":"SBSO","type":"small_airport","name":"Adolino Bedin Regional Airport","latitude_deg":-12.479177,"longitude_deg":-55.672341,"elevation_ft":1266,"continent":"SA","iso_country":"BR","iso_region":"BR-MT","municipality":"Sorriso","scheduled_service":"yes","icao_code":null,"iata_code":"SMT","gps_code":"SBSO","local_code":"MT0005","home_link":"https://www4.infraero.gov.br/aeroportos/aeroporto-regional-de-sorriso/","wikipedia_link":"https://en.wikipedia.org/wiki/Sorriso_Airport","keywords":"SDSS"}
{"id":4561,"ident":"LTCP","type":"medium_airport","name":"Adıyaman Airport","latitude_deg":37.7314,"longitude_deg":38.468899,"elevation_ft":2216,"continent":"AS","iso_country":"TR","iso_region":"TR-02","municipality":"Adıyaman","scheduled_service":"yes","icao_code":"LTCP","iata_code":"ADF","gps_code":"LTCP","local_code":null,"home_link":null,"wikipedia_link":"https://en.wikipedia.org/wiki/Ad%C4%B1yaman_Airport","keywords":null}
{"id":4466,"ident":"LPVZ","type":"medium_airport","name":"Aerodromo Goncalves Lobato (Viseu Airport)","latitude_deg":40.725498,"longitude_deg":-7.88899,"elevation_ft":2060,"continent":"EU","iso_country":"PT","iso_region":"PT-18","municipality":"Viseu","scheduled_service":"yes","icao_code":"LPVZ","iata_code":"VSE","gps_code":"LPVZ","local_code":null,"home_link":null,"wikipedia_link":"https://en.wikipedia.org/wiki/Viseu_Airport","keywords":null}
{"id":6091,"ident":"SGES","type":"large_airport","name":"Aeropuerto Internacional Guaraní","latitude_deg":-25.457186,"longitude_deg":-54.839544,"elevation_ft":846,"continent":"SA","iso_country":"PY","iso_region":"PY-10","municipality":"Ciudad del Este","scheduled_service":"yes","icao_code":"SGES","iata_code":"AGT","gps_code":"SGES","local_code":null,"home_link":null,"wikipedia_link":"https://en.wikipedia.org/wiki/Guarani_International_Airport","keywords":"Aeropuerto Internacional Guaraní"}
{"id":6088,"ident":"SGAS","type":"large_airport","name":"Aeropuerto Internacional Silvio Pettirossi","latitude_deg":-25.240156,"longitude_deg":-57.519227,"elevation_ft":292,"continent":"SA","iso_country":"PY","iso_region":"PY-11","municipality":"Asunción","scheduled_service":"yes","icao_code":"SGAS","iata_code":"ASU","gps_code":"SGAS","local_code":null,"home_link":null,"wikipedia_link":"https://en.wikipedia.org/wiki/Silvio_Pettirossi_International_Airport","keywords":"Luque, Stroessner, Aeropuerto Internacional Silvio Pettirossi"}
{"id":29851,"ident":"SGEN","type":"large_airport","name":"Aeropuerto Internacional Tte. Amín Ayub González","latitude_deg":-27.227537,"longitude_deg":-55.837584,"elevation_ft":659,"continent":"SA","iso_country":"PY","iso_region":"PY-7","municipality":"Encarnación","scheduled_service":"yes","icao_code":"SGEN","iata_code":"ENO","gps_code":"SGEN","local_code":null,"home_link":null,"wikipedia_link":"https://en.wikipedia.org/wiki/Teniente_Amin_Ayub_Gonzalez_Airport","keywords":"Aeropuerto Internacional Tte. Amin Ayub González"}
{"id":5891,"ident":"SBCT","type":"medium_airport","name":"Afonso Pena Airport","latitude_deg":-25.5285,"longitude_deg":-49.1758,"elevation_ft":2988,"continent":"SA","iso_country":"BR","iso_region":"BR-PR","municipality":"Curitiba","scheduled_service":"yes","icao_code":"SBCT","iata_code":"CWB","gps_code":"SBCT","local_code":"PR0001","home_link":null,"wikipedia_link":"https://en.wikipedia.org/wiki/Afonso_Pena_International_Airport","keywords":null}
{"id":26489,"ident":"VEAT","type":"medium_airport","name":"Agartala - Maharaja Bir Bikram Airport","latitude_deg":23.886999,"longitude_deg":91.240402,"elevation_ft":46,"continent":"AS","iso_country":"IN","iso_region":"IN-TR","municipality":"Agartala","scheduled_service":"yes","icao_code":"VEAT","iata_code":"IXA","gps_code":"VEAT","local_code":null,"home_link":null,"wikipedia_link":"https://en.wikipedia.org/wiki/Agartala_Airport","keywords":"Singerbhil Airport, Agartala Air Force Station"}
{"id":26602,"ident":"VOAT","type":"medium_airport","name":"Agatti Airport","latitude_deg":10.8237,"longitude_deg":72.176003,"elevation_ft":14,"continent":"AS","iso_country":"IN","iso_region":"IN-LD","municipality":"Agatti","scheduled_service":"yes","icao_code":"VOAT","iata_code":"AGX","gps_code":"VOAT","local_code":null,"home_link":null,"wikipedia_link":"https://en.wikipedia.org/wiki/Agatti_Aerodrome","keywords":null}
{"id":26537,"ident":"VIAG","type":"medium_airport","name":"Agra Airport / Agra Air Force Station","latitude_deg":27.157683,"longitude_deg":77.960942,"elevation_ft":551,"continent":"AS","iso_country":"IN","iso_region":"IN-UP","municipality":"Agra","scheduled_service":"yes","icao_code":"VIAG","iata_code":"AGR","gps_code":"VIAG","local_code":null,"home_link":null,"wikipedia_link":"https://en.wikipedia.org/wiki/Agra_Airport","keywords":"Kheria Airport, Pandit Deen Dayal Upadhyay Airport, RAF Agra"}
{"id":2056,"ident":"DAAT","type":"medium_airport","name":"Aguenar – Hadj Bey Akhamok Airport","latitude_deg":22.811501,"longitude_deg":5.45108,"elevation_ft":4518,"continent":"AF","iso_country":"DZ","iso_region":"DZ-11","municipality":"Tamanrasset","scheduled_service":"yes","icao_code":"DAAT","iata_code":"TMR","gps_code":"DAAT","local_code":null,"home_link":null,"wikipedia_link":"https://en.wikipedia.org/wiki/Tamanrasset_Airport","keywords":null}
{"id":30621,"ident":"RORA","type":"small_airport","name":"Aguni Airport","latitude_deg":26.592755,"longitude_deg":127.240335,"elevation_ft":38,"continent":"AS","iso_country":"JP","iso_region":"JP-47","municipality":"Aguni","scheduled_service":"yes","icao_code":"RORA","iata_code":"AGJ","gps_code":"RORA","local_code":null,"home_link":null,"wikipedia_link":"https://en.wikipedia.org/wiki/Aguni_Airport","keywords":null}
{"id":4997,"ident":"NTHE","type":"medium_airport","name":"Ahe Airport","latitude_deg":-14.428099632263184,"longitude_deg":-146.2570037841797,"elevation_ft":11,"continent":"OC","iso_country":"PF","iso_region":"PF-U-A","municipality":"Ahe Atoll","scheduled_service":"yes","icao_code":"NTHE","iata_code":"AHE","gps_code":"NTHE","local_code":null,"home_link":"http://www.sia.aviation-civile.gouv.fr/aip/enligne/PDF_AIPparSSection/AIP%20PAC-P/AD/2/0703_AD%202.NTHE.pdf","wikipedia_link":"https://en.wikipedia.org/wiki/Ahe_Airport","keywords":"Tenukupara"}
{"id":5073,"ident":"OAKN","type":"medium_airport","name":"Ahmad Shah Baba International Airport / Kandahar Airfield","latitude_deg":31.5058,"longitude_deg":65.847801,"elevation_ft":3337,"continent":"AS","iso_country":"AF","iso_region":"AF-KAN","municipality":"Khvoshab","scheduled_service":"yes","icao_code":"OAKN","iata_code":"KDH","gps_code":"OAKN","local_code":null,"home_link":null,"wikipedia_link":"https://en.wikipedia.org/wiki/Kandahar_International_Airport","keywords":"Kandahar International Airport"}
{"id":32193,"ident":"DAAS","type":"medium_airport","name":"Ain Arnat Airport","latitude_deg":36.178100585900005,"longitude_deg":5.3244900703399995,"elevation_ft":3360,"continent":"AF","iso_country":"DZ","iso_region":"DZ-19","municipality":"Sétif","scheduled_service":"yes","icao_code":"DAAS","iata_code":"QSF","gps_code":"DAAS","local_code":null,"home_link":"http://www.egsa-constantine.dz/","wikipedia_link":"https://en.wikipedia.org/wiki/Ain_Arnat_Airport","keywords":"Sétif International Airport, 8 Mai 45 Airport"}
{"id":2085,"ident":"DAUU","type":"medium_airport","name":"Ain Beida Airport","latitude_deg":31.9172,"longitude_deg":5.41278,"elevation_ft":492,"continent":"AF","iso_country":"DZ","iso_region":"DZ-30","municipality":"Ouargla","scheduled_service":"yes","icao_code":"DAUU","iata_code":"OGX","gps_code":"DAUU","local_code":null,"home_link":null,"wikipedia_link":"https://en.wikipedia.org/wiki/Ain_Beida_Airport","keywords":"Ain el Beida, Sedrata Airfield"}
{"id":6213,"ident":"SPHI","type":"medium_airport","name":"Air Force Captain Jose A Quinones Gonzales International Airport","latitude_deg":-6.78748,"longitude_deg":-79.828102,"elevation_ft":97,"continent":"SA","iso_country":"PE","iso_region":"PE-LAM","municipality":"Chiclayo","scheduled_service":"yes","icao_code":"SPHI","iata_code":"CIX","gps_code":"SPHI","local_code":null,"home_link":null,"wikipedia_link":"https://en.wikipedia.org/wiki/Cap._FAP_Jos%C3%A9_A._Qui%C3%B1ones_Gonzales_International_Airport","keywords":null}
{"id":6214,"ident":"SPHO","type":"medium_airport","name":"Air Force Colonel Alfredo Mendivil Duarte Airport","latitude_deg":-13.1548,"longitude_deg":-74.204399,"elevation_ft":8917,"continent":"SA","iso_country":"PE","iso_region":"PE-AYA","municipality":"Ayacucho","scheduled_service":"yes","icao_code":"SPHO","iata_code":"AYP","gps_code":"SPHO","local_code":null,"home_link":null,"wikipedia_link":"https://en.wikipedia.org/wiki/Coronel_FAP_Alfredo_Mendivil_Duarte_Airport","keywords":"Coronel FAP Alfredo Mendivil Duarte"}
{"id":4957,"ident":"NCAI","type":"small_airport","name":"Aitutaki Airport","latitude_deg":-18.8309,"longitude_deg":-159.764008,"elevation_ft":14,"continent":"OC","iso_country":"CK","iso_region":"CK-U-A","municipality":"Aitutaki","scheduled_service":"yes","icao_code":"NCAI","iata_code":"AIT","gps_code":"NCAI","local_code":null,"home_link":"https://cookislandsairports.com/home/","wikipedia_link":"https://en.wikipedia.org/wiki/Aitutaki_Airport","keywords":null}
{"id":4126,"ident":"LFKJ","type":"medium_airport","name":"Ajaccio-Napoléon Bonaparte Airport","latitude_deg":41.92359924316406,"longitude_deg":8.8029203414917,"elevation_ft":18,"continent":"EU","iso_country":"FR","iso_region":"FR-COR","municipality":"Ajaccio/Napoléon Bonaparte","scheduled_service":"yes","icao_code":"LFKJ","iata_code":"AJA","gps_code":"LFKJ","local_code":null,"home_link":null,"wikipedia_link":"https://en.wikipedia.org/wiki/Ajaccio_-_Campo_dell'Oro_Airport","keywords":null}
{"id":26763,"ident":"WALS","type":"medium_airport","name":"Aji Pangeran Tumenggung Pranoto International Airport","latitude_deg":-0.374478,"longitude_deg":117.250128,"elevation_ft":82,"continent":"AS","iso_country":"ID","iso_region":"ID-KI","municipality":"Samarinda","scheduled_service":"yes","icao_code":"WALS","iata_code":"AAP","gps_code":"WALS","local_code":null,"home_link":null,"wikipedia_link":"https://en.wikipedia.org/wiki/Aji_Pangeran_Tumenggung_Pranoto_International_Airport","keywords":"Sungai Siring Airport"}
{"id":2108,"ident":"DNEN","type":"medium_airport","name":"Akanu Ibiam International Airport","latitude_deg":6.474269866943359,"longitude_deg":7.561960220336914,"elevation_ft":466,"continent":"AF","iso_country":"NG","iso_region":"NG-EN","municipality":"Enegu","scheduled_service":"yes","icao_code":"DNEN","iata_code":"ENU","gps_code":"DNEN","local_code":null,"home_link":"http://www.faannigeria.org/nigeria-airport.php?airport=11","wikipedia_link":"https://en.wikipedia.org/wiki/Akanu_Ibiam_International_Airport","keywords":null}
{"id":16192,"ident":"PAKH","type":"small_airport","name":"Akhiok Airport","latitude_deg":56.938702,"longitude_deg":-154.182999,"elevation_ft":44,"continent":"NA","iso_country":"US","iso_region":"US-AK","municipality":"Akhiok","scheduled_service":"yes","icao_code":"PAKH","iata_code":"AKK","gps_code":"PAKH","local_code":"AKK","home_link":null,"wikipedia_link":"https://en.wikipedia.org/wiki/Akhiok_Airport","keywords":null}
{"id":26345,"ident":"Z13","type":"small_airport","name":"Akiachak Airport","latitude_deg":60.913809,"longitude_deg":-161.493329,"elevation_ft":23,"continent":"NA","iso_country":"US","iso_region":"US-AK","municipality":"Akiachak","scheduled_service":"yes","icao_code":null,"iata_code":"KKI","gps_code":"PFZK","local_code":"Z13","home_link":null,"wikipedia_link":"https://en.wikipedia.org/wiki/Akiachak_Airport","keywords":null}
{"id":16191,"ident":"PFAK","type":"small_airport","name":"Akiak Airport","latitude_deg":60.902646,"longitude_deg":-161.23106,"elevation_ft":30,"continent":"NA","iso_country":"US","iso_region":"US-AK","municipality":"Akiak","scheduled_service":"yes","icao_code":"PFAK","iata_code":"AKI","gps_code":"PFAK","local_code":"AKI","home_link":null,"wikipedia_link":"https://en.wikipedia.org/wiki/Akiak_Airport","keywords":null}
{"id":5611,"ident":"RJSK","type":"medium_airport","name":"Akita Airport","latitude_deg":39.615601,"longitude_deg":140.218994,"elevation_ft":313,"continent":"AS","iso_country":"JP","iso_region":"JP-05","municipality":"Akita","scheduled_service":"yes","icao_code":"RJSK","iata_code":"AXT","gps_code":"RJSK","local_code":null,"home_link":null,"wikipedia_link":"https://en.wikipedia.org/wiki/Akita_Airport","keywords":null}
{"id":1786,"ident":"CYKD","type":"small_airport","name":"Aklavik/Freddie Carmichael Airport","latitude_deg":68.223297,"longitude_deg":-135.00599,"elevation_ft":23,"continent":"NA","iso_country":"CA","iso_region":"CA-NT","municipality":"Aklavik","scheduled_service":"yes","icao_code":"CYKD","iata_code":"LAK","gps_code":"CYKD","local_code":null,"home_link":null,"wikipedia_link":"https://en.wikipedia.org/wiki/Aklavik_Airport","keywords":"YKD"}
{"id":3439,"ident":"KCAK","type":"medium_airport","name":"Akron Canton Regional Airport","latitude_deg":40.916099548339844,"longitude_deg":-81.44219970703125,"elevation_ft":1228,"continent":"NA","iso_country":"US","iso_region":"US-OH","municipality":"Akron","scheduled_service":"yes","icao_code":"KCAK","iata_code":"CAK","gps_code":"KCAK","local_code":"CAK","home_link":null,"wikipedia_link":"https://en.wikipedia.org/wiki/Akron-Canton_Regional_Airport","keywords":null}
{"id":30635,"ident":"ZWAK","type":"medium_airport","name":"Aksu Hongqipo Airport","latitude_deg":41.262501,"longitude_deg":80.291702,"elevation_ft":3816,"continent":"AS","iso_country":"CN","iso_region":"CN-65","municipality":"Aksu (Onsu)","scheduled_service":"yes","icao_code":"ZWAK","iata_code":"AKU","gps_code":"ZWAK","local_code":null,"home_link":null,"wikipedia_link":"https://en.wikipedia.org/wiki/Aksu_Hongqipo_Airport","keywords":"Ak-su, Akshu, Aqsu, Bharuka, Po-lu-chia, Aksu Wensu Air Base, Onsu"}
{"id":6436,"ident":"UATE","type":"medium_airport","name":"Aktau Airport","latitude_deg":43.860093,"longitude_deg":51.09086,"elevation_ft":73,"continent":"AS","iso_country":"KZ","iso_region":"KZ-MAN","municipality":"Aktau","scheduled_service":"yes","icao_code":"UATE","iata_code":"SCO","gps_code":"UATE","local_code":null,"home_link":"http://aktau-airport.kz/","wikipedia_link":"https://en.wikipedia.org/wiki/Aktau_Airport","keywords":"Akshukyr"}
{"id":4277,"ident":"LGPZ","type":"medium_airport","name":"Aktion National Airport","latitude_deg":38.925499,"longitude_deg":20.765301,"elevation_ft":11,"continent":"EU","iso_country":"GR","iso_region":"GR-D","municipality":"Preveza","scheduled_service":"yes","icao_code":"LGPZ","iata_code":"PVK","gps_code":"LGPZ","local_code":null,"home_link":"https://www.pvk-airport.gr/en","wikipedia_link":"https://en.wikipedia.org/wiki/Aktion_National_Airport","keywords":"Preveza, Lefkada, Πρέβεζα, Λευκάδα"}
{"id":6438,"ident":"UATT","type":"medium_airport","name":"Aktobe Airport","latitude_deg":50.2458,"longitude_deg":57.206699,"elevation_ft":738,"continent":"AS","iso_country":"KZ","iso_region":"KZ-AKT","municipality":"Aktobe","scheduled_service":"yes","icao_code":"UATT","iata_code":"AKX","gps_code":"UATT","local_code":null,"home_link":null,"wikipedia_link":"https://en.wikipedia.org/wiki/Aktobe_Airport","keywords":"Aktyubinsk Airport, Aktubinsk Airport, Аэропорт Актюбинск"}
{"id":1791,"ident":"CYKO","type":"small_airport","name":"Akulivik Airport","latitude_deg":60.8186,"longitude_deg":-78.148598,"elevation_ft":75,"continent":"NA","iso_country":"CA","iso_region":"CA-QC","municipality":"Akulivik","scheduled_service":"yes","icao_code":"CYKO","iata_code":"AKV","gps_code":"CYKO","local_code":null,"home_link":null,"wikipedia_link":"https://en.wikipedia.org/wiki/Akulivik_Airport","keywords":"YKO"}
{"id":35284,"ident":"GL-QCU","type":"heliport","name":"Akunnaaq Heliport","latitude_deg":68.744273,"longitude_deg":-52.340369,"elevation_ft":59,"continent":"NA","iso_country":"GL","iso_region":"GL-QK","municipality":"Akunnaaq","scheduled_service":"yes","icao_code":null,"iata_code":"QCU","gps_code":"BGAK","local_code":null,"home_link":null,"wikipedia_link":"https://en.wikipedia.org/wiki/Akunnaaq_Heliport","keywords":"Akúnâk"}
{"id":2105,"ident":"DNAK","type":"medium_airport","name":"Akure Airport","latitude_deg":7.246739864349365,"longitude_deg":5.3010101318359375,"elevation_ft":1100,"continent":"AF","iso_country":"NG","iso_region":"NG-ON","municipality":"Akure","scheduled_service":"yes","icao_code":"DNAK","iata_code":"AKR","gps_code":"DNAK","local_code":null,"home_link":"http://www.faannigeria.org/nigeria-airport.php?airport=21","wikipedia_link":"https://en.wikipedia.org/wiki/Akure_Airport","keywords":null}
{"id":117,"ident":"BIAR","type":"medium_airport","name":"Akureyri Airport","latitude_deg":65.656573,"longitude_deg":-18.072018,"elevation_ft":6,"continent":"EU","iso_country":"IS","iso_region":"IS-6","municipality":"Akureyri","scheduled_service":"yes","icao_code":"BIAR","iata_code":"AEY","gps_code":"BIAR","local_code":null,"home_link":"https://www.isavia.is/en/akureyri-airport","wikipedia_link":"https://en.wikipedia.org/wiki/Akureyri_Airport","keywords":null}
{"id":308030,"ident":"PAUT","type":"small_airport","name":"Akutan Airport","latitude_deg":54.14459,"longitude_deg":-165.604332,"elevation_ft":133,"continent":"NA","iso_country":"US","iso_region":"US-AK","municipality":"Akutan","scheduled_service":"yes","icao_code":null,"iata_code":"KQA","gps_code":"PAUT","local_code":"7AK","home_link":"https://web.archive.org/web/20100410064944/http://dot.alaska.gov/creg/akutan/assets/Akun_ALP_Sheet-Set-1-9.pdf","wikipedia_link":"https://en.wikipedia.org/wiki/Akutan_Airport","keywords":"Akun Airport"}
{"id":309668,"ident":"DNAI","type":"medium_airport","name":"Akwa Ibom International Airport","latitude_deg":4.8725,"longitude_deg":8.093,"elevation_ft":170,"continent":"AF","iso_country":"NG","iso_region":"NG-AK","municipality":"Uyo","scheduled_service":"yes","icao_code":"DNAI","iata_code":"QUO","gps_code":"DNAI","local_code":null,"home_link":"http://www.ibomairport.com.ng/","wikipedia_link":"https://en.wikipedia.org/wiki/Akwa_Ibom_Airport","keywords":null}
{"id":3225,"ident":"HLLQ","type":"medium_airport","name":"Al Abraq International Airport","latitude_deg":32.7887,"longitude_deg":21.9643,"elevation_ft":2157,"continent":"AF","iso_country":"LY","iso_region":"LY-JA","municipality":"Al Albraq","scheduled_service":"yes","icao_code":"HLLQ","iata_code":"LAQ","gps_code":"HLLQ","local_code":null,"home_link":null,"wikipedia_link":"https://en.wikipedia.org/wiki/Al_Abraq_International_Airport","keywords":"Al Bayda, Beida"}
{"id":5230,"ident":"OMAL","type":"medium_airport","name":"Al Ain International Airport","latitude_deg":24.261699676513672,"longitude_deg":55.60919952392578,"elevation_ft":869,"continent":"AS","iso_country":"AE","iso_region":"AE-AZ","municipality":"Al Ain","scheduled_service":"yes","icao_code":"OMAL","iata_code":"AAN","gps_code":"OMAL","local_code":null,"home_link":null,"wikipedia_link":"https://en.wikipedia.org/wiki/Al_Ain_International_Airport","keywords":null}
{"id":5315,"ident":"OYGD","type":"medium_airport","name":"Al Ghaydah International Airport","latitude_deg":16.193341,"longitude_deg":52.174186,"elevation_ft":134,"continent":"AS","iso_country":"YE","iso_region":"YE-MR","municipality":"Al Ghaydah","scheduled_service":"yes","icao_code":"OYGD","iata_code":"AAY","gps_code":"OYGD","local_code":null,"home_link":null,"wikipedia_link":"https://en.wikipedia.org/wiki/Al_Ghaydah_Airport","keywords":"ODAG"}
{"id":300320,"ident":"OMDW","type":"large_airport","name":"Al Maktoum International Airport","latitude_deg":24.896356,"longitude_deg":55.161389,"elevation_ft":114,"continent":"AS","iso_country":"AE","iso_region":"AE-DU","municipality":"Jebel Ali","scheduled_service":"yes","icao_code":"OMDW","iata_code":"DWC","gps_code":"OMDW","local_code":null,"home_link":"https://www.dubaiairports.ae/","wikipedia_link":"https://en.wikipedia.org/wiki/Al_Maktoum_International_Airport","keywords":null}
{"id":3101,"ident":"GMAD","type":"large_airport","name":"Al Massira Airport","latitude_deg":30.322478,"longitude_deg":-9.412003,"elevation_ft":250,"continent":"AF","iso_country":"MA","iso_region":"MA-09","municipality":"Agadir (Temsia)","scheduled_service":"yes","icao_code":"GMAD","iata_code":"AGA","gps_code":"GMAD","local_code":null,"home_link":"http://www.agadir-airport.com/en/index.php","wikipedia_link":"https://en.wikipedia.org/wiki/Al_Massira_Airport","keywords":null}
{"id":311028,"ident":"ORNI","type":"medium_airport","name":"Al Najaf International Airport","latitude_deg":31.989853,"longitude_deg":44.404317,"elevation_ft":103,"continent":"AS","iso_country":"IQ","iso_region":"IQ-NA","municipality":"Najaf","scheduled_service":"yes","icao_code":"ORNI","iata_code":"NJF","gps_code":"ORNI","local_code":null,"home_link":"http://www.alnajafairport.net/","wikipedia_link":"https://en.wikipedia.org/wiki/Al_Najaf_International_Airport","keywords":null}
{"id":5103,"ident":"OEPA","type":"medium_airport","name":"Al Qaisumah/Hafr Al Batin Airport","latitude_deg":28.335199,"longitude_deg":46.125099,"elevation_ft":1174,"continent":"AS","iso_country":"SA","iso_region":"SA-04","municipality":"Qaisumah","scheduled_service":"yes","icao_code":"OEPA","iata_code":"AQI","gps_code":"OEPA","local_code":null,"home_link":null,"wikipedia_link":"https://en.wikipedia.org/wiki/Al_Qaisumah/Hafr_Al_Batin_Airport","keywords":"Qaisumah Domestic Airport"}
{"id":5128,"ident":"OEWJ","type":"medium_airport","name":"Al Wajh Domestic Airport","latitude_deg":26.198601,"longitude_deg":36.476398,"elevation_ft":66,"continent":"AS","iso_country":"SA","iso_region":"SA-07","municipality":"Al Wajh","scheduled_service":"yes","icao_code":"OEWJ","iata_code":"EJH","gps_code":"OEWJ","local_code":null,"home_link":null,"wikipedia_link":"https://en.wikipedia.org/wiki/Al_Wajh_Domestic_Airport","keywords":"Wedjh, Wejh"}
{"id":5083,"ident":"OEAH","type":"medium_airport","name":"Al-Ahsa International Airport","latitude_deg":25.285299,"longitude_deg":49.485199,"elevation_ft":588,"continent":"AS","iso_country":"SA","iso_region":"SA-04","municipality":"Hofuf","scheduled_service":"yes","icao_code":"OEAH","iata_code":"HOF","gps_code":"OEAH","local_code":null,"home_link":null,"wikipedia_link":"https://en.wikipedia.org/wiki/Al-Ahsa_Domestic_Airport","keywords":null}
{"id":5119,"ident":"OESK","type":"medium_airport","name":"Al-Jawf Domestic Airport","latitude_deg":29.78510093688965,"longitude_deg":40.099998474121094,"elevation_ft":2261,"continent":"AS","iso_country":"SA","iso_region":"SA-12","municipality":"Al-Jawf","scheduled_service":"yes","icao_code":"OESK","iata_code":"AJF","gps_code":"OESK","local_code":null,"home_link":null,"wikipedia_link":"https://en.wikipedia.org/wiki/Al-Jawf_Domestic_Airport","keywords":"Al Jouf Airport"}
{"id":16387,"ident":"PAUK","type":"small_airport","name":"Alakanuk Airport","latitude_deg":62.682653,"longitude_deg":-164.722481,"elevation_ft":10,"continent":"NA","iso_country":"US","iso_region":"US-AK","municipality":"Alakanuk","scheduled_service":"yes","icao_code":null,"iata_code":"AUK","gps_code":"PAUK","local_code":"AUK","home_link":null,"wikipedia_link":"https://en.wikipedia.org/wiki/Alakanuk_Airport","keywords":null}
{"id":507992,"ident":"WIMU","type":"medium_airport","name":"Alas Leuser Airport","latitude_deg":3.391456,"longitude_deg":97.863726,"elevation_ft":419,"continent":"AS","iso_country":"ID","iso_region":"ID-AC","municipality":"Kutacane","scheduled_service":"yes","icao_code":null,"iata_code":"LSR","gps_code":"WIMU","local_code":null,"home_link":null,"wikipedia_link":"https://en.wikipedia.org/wiki/Alas_Leuser_Airport","keywords":null}
{"id":2939,"ident":"FNHU","type":"medium_airport","name":"Albano Machado Airport","latitude_deg":-12.8089,"longitude_deg":15.7605,"elevation_ft":5587,"continent":"AF","iso_country":"AO","iso_region":"AO-HUA","municipality":"Huambo","scheduled_service":"yes","icao_code":"FNHU","iata_code":"NOV","gps_code":"FNHU","local_code":null,"home_link":null,"wikipedia_link":"https://en.wikipedia.org/wiki/Albano_Machado_Airport","keywords":"Nova Lisboa Airport"}
{"id":26888,"ident":"YABA","type":"medium_airport","name":"Albany Airport","latitude_deg":-34.94329833984375,"longitude_deg":117.80899810791016,"elevation_ft":233,"continent":"OC","iso_country":"AU","iso_region":"AU-WA","municipality":"Albany","scheduled_service":"yes","icao_code":"YABA","iata_code":"ALH","gps_code":"YABA","local_code":null,"home_link":null,"wikipedia_link":"https://en.wikipedia.org/wiki/Albany_Airport_(Australia)","keywords":"ABA, YPAL"}
{"id":3371,"ident":"KALB","type":"medium_airport","name":"Albany International Airport","latitude_deg":42.74829864501953,"longitude_deg":-73.80169677734375,"elevation_ft":285,"continent":"NA","iso_country":"US","iso_region":"US-NY","municipality":"Albany","scheduled_service":"yes","icao_code":"KALB","iata_code":"ALB","gps_code":"KALB","local_code":"ALB","home_link":"http://www.albanyairport.com/","wikipedia_link":"https://en.wikipedia.org/wiki/Albany_International_Airport","keywords":null}
{"id":20709,"ident":"KOAJ","type":"medium_airport","name":"Albert J Ellis Airport","latitude_deg":34.829201,"longitude_deg":-77.612099,"elevation_ft":94,"continent":"NA","iso_country":"US","iso_region":"US-NC","municipality":"Richlands","scheduled_service":"yes","icao_code":"KOAJ","iata_code":"OAJ","gps_code":"KOAJ","local_code":"OAJ","home_link":"https://flyoaj.com/","wikipedia_link":"https://en.wikipedia.org/wiki/Albert_J._Ellis_Airport","keywords":null}
{"id":4858,"ident":"MUTD","type":"medium_airport","name":"Alberto Delgado Airport","latitude_deg":21.7883,"longitude_deg":-79.9972,"elevation_ft":125,"continent":"NA","iso_country":"CU","iso_region":"CU-07","municipality":"Trinidad","scheduled_service":"yes","icao_code":"MUTD","iata_code":"TND","gps_code":"MUTD","local_code":null,"home_link":null,"wikipedia_link":"https://en.wikipedia.org/wiki/Alberto_Delgado_Airport","keywords":null}
{"id":16091,"ident":"KABQ","type":"large_airport","name":"Albuquerque International Sunport","latitude_deg":35.039976,"longitude_deg":-106.608925,"elevation_ft":5355,"continent":"NA","iso_country":"US","iso_region":"US-NM","municipality":"Albuquerque","scheduled_service":"yes","icao_code":"KABQ","iata_code":"ABQ","gps_code":"KABQ","local_code":"ABQ","home_link":"http://www.abqsunport.com/","wikipedia_link":"https://en.wikipedia.org/wiki/Albuquerque_International_Sunport","keywords":null}
{"id":27044,"ident":"YMAY","type":"medium_airport","name":"Albury Airport","latitude_deg":-36.066758,"longitude_deg":146.959148,"elevation_ft":539,"continent":"OC","iso_country":"AU","iso_region":"AU-NSW","municipality":"East Albury","scheduled_service":"yes","icao_code":"YMAY","iata_code":"ABX","gps_code":"YMAY","local_code":null,"home_link":null,"wikipedia_link":"https://en.wikipedia.org/wiki/Albury_Airport","keywords":null}
{"id":333229,"ident":"SLAL","type":"medium_airport","name":"Alcantarí Airport","latitude_deg":-19.246835,"longitude_deg":-65.149611,"elevation_ft":10184,"continent":"SA","iso_country":"BO","iso_region":"BO-H","municipality":"Yamparaez","scheduled_service":"yes","icao_code":null,"iata_code":"SRE","gps_code":"SLAL","local_code":null,"home_link":null,"wikipedia_link":"https://en.wikipedia.org/wiki/Alcantar%C3%AD_Airport","keywords":null}
{"id":2424,"ident":"EGJA","type":"medium_airport","name":"Alderney Airport","latitude_deg":49.706104,"longitude_deg":-2.21472,"elevation_ft":290,"continent":"EU","iso_country":"GG","iso_region":"GG-A","municipality":"Saint Anne","scheduled_service":"yes","icao_code":"EGJA","iata_code":"ACI","gps_code":"EGJA","local_code":null,"home_link":null,"wikipedia_link":"https://en.wikipedia.org/wiki/Alderney_Airport","keywords":"The Blaye, Channel Islands"}
{"id":6243,"ident":"SPZO","type":"large_airport","name":"Alejandro Velasco Astete International Airport","latitude_deg":-13.535699844400002,"longitude_deg":-71.9387969971,"elevation_ft":10860,"continent":"SA","iso_country":"PE","iso_region":"PE-CUS","municipality":"Cusco","scheduled_service":"yes","icao_code":"SPZO","iata_code":"CUZ","gps_code":"SPZO","local_code":null,"home_link":"http://www.corpac.gob.pe/","wikipedia_link":"https://en.wikipedia.org/wiki/Alejandro_Velasco_Astete_International_Airport","keywords":null}
{"id":12243,"ident":"5A8","type":"medium_airport","name":"Aleknagik / New Airport","latitude_deg":59.2826004028,"longitude_deg":-158.617996216,"elevation_ft":66,"continent":"NA","iso_country":"US","iso_region":"US-AK","municipality":"Aleknagik","scheduled_service":"yes","icao_code":null,"iata_code":"WKK","gps_code":"5A8","local_code":"5A8","home_link":null,"wikipedia_link":"https://en.wikipedia.org/wiki/Aleknagik_Airport","keywords":null}
{"id":5302,"ident":"OSAP","type":"medium_airport","name":"Aleppo International Airport","latitude_deg":36.180698,"longitude_deg":37.2244,"elevation_ft":1276,"continent":"AS","iso_country":"SY","iso_region":"SY-HL","municipality":"Aleppo","scheduled_service":"yes","icao_code":"OSAP","iata_code":"ALP","gps_code":"OSAP","local_code":null,"home_link":"http://www.aleppo-airport.com/en/","wikipedia_link":"https://en.wikipedia.org/wiki/Aleppo_International_Airport","keywords":"مطار حلب الدولي"}
{"id":1656,"ident":"CYAL","type":"small_airport","name":"Alert Bay Airport","latitude_deg":50.582199,"longitude_deg":-126.916,"elevation_ft":240,"continent":"NA","iso_country":"CA","iso_region":"CA-BC","municipality":"Alert Bay","scheduled_service":"yes","icao_code":"CYAL","iata_code":"YAL","gps_code":"CYAL","local_code":null,"home_link":null,"wikipedia_link":"https://en.wikipedia.org/wiki/Alert_Bay_Airport","keywords":null}
{"id":3365,"ident":"KAEX","type":"medium_airport","name":"Alexandria International Airport","latitude_deg":31.3274,"longitude_deg":-92.549797,"elevation_ft":89,"continent":"NA","iso_country":"US","iso_region":"US-LA","municipality":"Alexandria","scheduled_service":"yes","icao_code":"KAEX","iata_code":"AEX","gps_code":"KAEX","local_code":"AEX","home_link":null,"wikipedia_link":"https://en.wikipedia.org/wiki/Alexandria_International_Airport_(Louisiana)","keywords":"England Air Park, England Air Force Base"}
{"id":4250,"ident":"LGAL","type":"medium_airport","name":"Alexandroupoli Democritus Airport","latitude_deg":40.8559,"longitude_deg":25.956301,"elevation_ft":24,"continent":"EU","iso_country":"GR","iso_region":"GR-A","municipality":"Alexandroupolis","scheduled_service":"yes","icao_code":"LGAL","iata_code":"AXD","gps_code":"LGAL","local_code":null,"home_link":null,"wikipedia_link":"https://en.wikipedia.org/wiki/Alexandroupoli_Airport","keywords":null}
{"id":6229,"ident":"SPNC","type":"medium_airport","name":"Alferez Fap David Figueroa Fernandini Airport","latitude_deg":-9.878809928894043,"longitude_deg":-76.20480346679688,"elevation_ft":6070,"continent":"SA","iso_country":"PE","iso_region":"PE-HUC","municipality":"Huánuco","scheduled_service":"yes","icao_code":"SPNC","iata_code":"HUU","gps_code":"SPNC","local_code":null,"home_link":null,"wikipedia_link":"https://en.wikipedia.org/wiki/Alf%C3%A9rez_FAP_David_Figueroa_Fernandini_Airport","keywords":null}
{"id":6110,"ident":"SKCL","type":"medium_airport","name":"Alfonso Bonilla Aragon International Airport","latitude_deg":3.54322,"longitude_deg":-76.3816,"elevation_ft":3162,"continent":"SA","iso_country":"CO","iso_region":"CO-VAC","municipality":"Cali","scheduled_service":"yes","icao_code":"SKCL","iata_code":"CLO","gps_code":"SKCL","local_code":"CLO","home_link":"https://www.aerocali.com.co/","wikipedia_link":"https://en.wikipedia.org/wiki/Alfonso_Bonilla_Arag%C3%B3n_International_Airport","keywords":"Palmaseca International, 02-20"}
{"id":6176,"ident":"SKVP","type":"medium_airport","name":"Alfonso López Pumarejo Airport","latitude_deg":10.435,"longitude_deg":-73.2495,"elevation_ft":483,"continent":"SA","iso_country":"CO","iso_region":"CO-CES","municipality":"Valledupar","scheduled_service":"yes","icao_code":"SKVP","iata_code":"VUP","gps_code":"SKVP","local_code":"VUP","home_link":null,"wikipedia_link":"https://en.wikipedia.org/wiki/Valledupar_Airport","keywords":null}
{"id":6130,"ident":"SKLT","type":"medium_airport","name":"Alfredo Vásquez Cobo International Airport","latitude_deg":-4.19355,"longitude_deg":-69.9432,"elevation_ft":277,"continent":"SA","iso_country":"CO","iso_region":"CO-AMA","municipality":"Leticia","scheduled_service":"yes","icao_code":"SKLT","iata_code":"LET","gps_code":"SKLT","local_code":"LET","home_link":null,"wikipedia_link":"https://en.wikipedia.org/wiki/V%C3%A1squez_Cobo_International_Airport","keywords":null}
{"id":4330,"ident":"LIEA","type":"medium_airport","name":"Alghero-Fertilia Airport","latitude_deg":40.632099,"longitude_deg":8.29077,"elevation_ft":87,"continent":"EU","iso_country":"IT","iso_region":"IT-88","municipality":"Alghero","scheduled_service":"yes","icao_code":"LIEA","iata_code":"AHO","gps_code":"LIEA","local_code":"SS02","home_link":"http://www.aeroportodialghero.it/home_en.asp","wikipedia_link":"https://en.wikipedia.org/wiki/Alghero-Fertilia_Airport","keywords":"Alghero Airport, Sardinia, Alghero - Riviera del Corallo Airport"}
{"id":3997,"ident":"LEAL","type":"large_airport","name":"Alicante-Elche Miguel Hernández Airport","latitude_deg":38.2822,"longitude_deg":-0.558156,"elevation_ft":142,"continent":"EU","iso_country":"ES","iso_region":"ES-VC","municipality":"Alicante","scheduled_service":"yes","icao_code":"LEAL","iata_code":"ALC","gps_code":"LEAL","local_code":null,"home_link":"https://www.aena.es/en/alicante-elche.html","wikipedia_link":"https://en.wikipedia.org/wiki/Alicante–Elche_Miguel_Hernández_Airport","keywords":null}
{"id":26900,"ident":"YBAS","type":"medium_airport","name":"Alice Springs Airport","latitude_deg":-23.806588,"longitude_deg":133.903427,"elevation_ft":1789,"continent":"OC","iso_country":"AU","iso_region":"AU-NT","municipality":"Alice Springs","scheduled_service":"yes","icao_code":"YBAS","iata_code":"ASP","gps_code":"YBAS","local_code":null,"home_link":"http://www.alicespringsairport.com.au/","wikipedia_link":"https://en.wikipedia.org/wiki/Alice_Springs_Airport","keywords":null}
{"id":298454,"ident":"VIAH","type":"small_airport","name":"Aligarh Airport","latitude_deg":27.861437,"longitude_deg":78.145404,"elevation_ft":619,"continent":"AS","iso_country":"IN","iso_region":"IN-UP","municipality":"Aligarh","scheduled_service":"yes","icao_code":null,"iata_code":"HRH","gps_code":"VIAH","local_code":null,"home_link":null,"wikipedia_link":"https://en.wikipedia.org/wiki/Aligarh_Airport","keywords":"Dhanipur"}
{"id":16289,"ident":"ALZ","type":"seaplane_base","name":"Alitak Seaplane Base","latitude_deg":56.897294,"longitude_deg":-154.249692,"elevation_ft":null,"continent":"NA","iso_country":"US","iso_region":"US-AK","municipality":"Lazy Bay","scheduled_service":"yes","icao_code":null,"iata_code":"ALZ","gps_code":null,"local_code":"ALZ","home_link":null,"wikipedia_link":"https://en.wikipedia.org/wiki/Alitak_Seaplane_Base","keywords":null}
{"id":13176,"ident":"PFAL","type":"small_airport","name":"Allakaket Airport","latitude_deg":66.551804,"longitude_deg":-152.621994,"elevation_ft":441,"continent":"NA","iso_country":"US","iso_region":"US-AK","municipality":"Allakaket","scheduled_service":"yes","icao_code":"PFAL","iata_code":"AET","gps_code":"PFAL","local_code":"6A8","home_link":null,"wikipedia_link":"https://en.wikipedia.org/wiki/Allakaket_Airport","keywords":null}
{"id":5257,"ident":"OPLA","type":"large_airport","name":"Allama Iqbal International Airport","latitude_deg":31.521601,"longitude_deg":74.403603,"elevation_ft":712,"continent":"AS","iso_country":"PK","iso_region":"PK-PB","municipality":"Lahore","scheduled_service":"yes","icao_code":"OPLA","iata_code":"LHE","gps_code":"OPLA","local_code":null,"home_link":null,"wikipedia_link":"https://en.wikipedia.org/wiki/Allama_Iqbal_International_Airport","keywords":"OPLR"}
{"id":19257,"ident":"KAIA","type":"medium_airport","name":"Alliance Municipal Airport","latitude_deg":42.052543,"longitude_deg":-102.803965,"elevation_ft":3931,"continent":"NA","iso_country":"US","iso_region":"US-NE","municipality":"Alliance","scheduled_service":"yes","icao_code":"KAIA","iata_code":"AIA","gps_code":"KAIA","local_code":"AIA","home_link":null,"wikipedia_link":"https://en.wikipedia.org/wiki/Alliance_Municipal_Airport","keywords":null}
{"id":35285,"ident":"BGAP","type":"heliport","name":"Alluitsup Paa Heliport","latitude_deg":60.46445,"longitude_deg":-45.56917,"elevation_ft":54,"continent":"NA","iso_country":"GL","iso_region":"GL-KU","municipality":"Alluitsup Paa","scheduled_service":"yes","icao_code":null,"iata_code":"LLU","gps_code":"BGAP","local_code":null,"home_link":null,"wikipedia_link":"https://en.wikipedia.org/wiki/Alluitsup_Paa_Heliport","keywords":"Agdluitsup pâ"}
{"id":6421,"ident":"UAAA","type":"large_airport","name":"Almaty International Airport","latitude_deg":43.354267,"longitude_deg":77.042828,"elevation_ft":2234,"continent":"AS","iso_country":"KZ","iso_region":"KZ-ALA","municipality":"Almaty","scheduled_service":"yes","icao_code":"UAAA","iata_code":"ALA","gps_code":"UAAA","local_code":null,"home_link":null,"wikipedia_link":"https://en.wikipedia.org/wiki/Almaty_International_Airport","keywords":"Alma Ata"}
{"id":37346,"ident":"SNYA","type":"small_airport","name":"Almeirim Airport","latitude_deg":-1.479524,"longitude_deg":-52.578214,"elevation_ft":584,"continent":"SA","iso_country":"BR","iso_region":"BR-PA","municipality":"Almeirim","scheduled_service":"yes","icao_code":"SNYA","iata_code":"GGF","gps_code":"SNYA","local_code":"PA0024","home_link":null,"wikipedia_link":"https://en.wikipedia.org/wiki/Almeirim_Airport","keywords":null}
{"id":3998,"ident":"LEAM","type":"medium_airport","name":"Almería Airport","latitude_deg":36.843899,"longitude_deg":-2.3701,"elevation_ft":70,"continent":"EU","iso_country":"ES","iso_region":"ES-AN","municipality":"Almería","scheduled_service":"yes","icao_code":"LEAM","iata_code":"LEI","gps_code":"LEAM","local_code":null,"home_link":"https://www.aena.es/en/almeria.html","wikipedia_link":"https://en.wikipedia.org/wiki/Almer%C3%ADa_International_Airport","keywords":null}
{"id":5827,"ident":"SAVT","type":"medium_airport","name":"Almirante Marco Andres Zar Airport","latitude_deg":-43.2105,"longitude_deg":-65.2703,"elevation_ft":141,"continent":"SA","iso_country":"AR","iso_region":"AR-U","municipality":"Rawson","scheduled_service":"yes","icao_code":"SAVT","iata_code":"REL","gps_code":"SAVT","local_code":"TRE","home_link":null,"wikipedia_link":"https://en.wikipedia.org/wiki/Almirante_Marco_Andr%C3%A9s_Zar_Airport","keywords":"Trelew Airport"}
{"id":6159,"ident":"SKRH","type":"medium_airport","name":"Almirante Padilla Airport","latitude_deg":11.5262,"longitude_deg":-72.926,"elevation_ft":43,"continent":"SA","iso_country":"CO","iso_region":"CO-LAG","municipality":"Riohacha","scheduled_service":"yes","icao_code":"SKRH","iata_code":"RCH","gps_code":"SKRH","local_code":"RCH","home_link":null,"wikipedia_link":"https://en.wikipedia.org/wiki/Riohacha_Airport","keywords":null}
{"id":4787,"ident":"MPCE","type":"medium_airport","name":"Alonso Valderrama Airport","latitude_deg":7.98784,"longitude_deg":-80.409837,"elevation_ft":33,"continent":"NA","iso_country":"PA","iso_region":"PA-6","municipality":"Chitré","scheduled_service":"yes","icao_code":"MPCE","iata_code":"CTD","gps_code":"MPCE","local_code":null,"home_link":null,"wikipedia_link":"https://en.wikipedia.org/wiki/Chitré_Alonso_Valderrama_Airport","keywords":null}
{"id":26799,"ident":"WATM","type":"small_airport","name":"Alor Island - Mali Airport","latitude_deg":-8.13234,"longitude_deg":124.597,"elevation_ft":10,"continent":"AS","iso_country":"ID","iso_region":"ID-NT","municipality":"Kabola","scheduled_service":"yes","icao_code":"WATM","iata_code":"ARD","gps_code":"WATM","local_code":null,"home_link":null,"wikipedia_link":"https://en.wikipedia.org/wiki/Alor_Island_Airport","keywords":null}
{"id":3382,"ident":"KAPN","type":"medium_airport","name":"Alpena County Regional Airport","latitude_deg":45.0780983,"longitude_deg":-83.56030273,"elevation_ft":690,"continent":"NA","iso_country":"US","iso_region":"US-MI","municipality":"Alpena","scheduled_service":"yes","icao_code":"KAPN","iata_code":"APN","gps_code":"KAPN","local_code":"APN","home_link":null,"wikipedia_link":"https://en.wikipedia.org/wiki/Alpena_County_Regional_Airport","keywords":null}
{"id":2566,"ident":"ENAT","type":"medium_airport","name":"Alta Airport","latitude_deg":69.976097,"longitude_deg":23.3717,"elevation_ft":9,"continent":"EU","iso_country":"NO","iso_region":"NO-56","municipality":"Alta","scheduled_service":"yes","icao_code":"ENAT","iata_code":"ALF","gps_code":"ENAT","local_code":null,"home_link":"https://avinor.no/en/airport/alta-airport/","wikipedia_link":"https://en.wikipedia.org/wiki/Alta_Airport","keywords":null}
{"id":29654,"ident":"ZMAT","type":"medium_airport","name":"Altai Airport","latitude_deg":46.376399993896484,"longitude_deg":96.22109985351562,"elevation_ft":7260,"continent":"AS","iso_country":"MN","iso_region":"MN-065","municipality":"Altai","scheduled_service":"yes","icao_code":"ZMAT","iata_code":"LTI","gps_code":"ZMAT","local_code":null,"home_link":null,"wikipedia_link":"https://en.wikipedia.org/wiki/Altai_Airport","keywords":null}
{"id":5914,"ident":"SBHT","type":"medium_airport","name":"Altamira Interstate Airport","latitude_deg":-3.253144,"longitude_deg":-52.253938,"elevation_ft":368,"continent":"SA","iso_country":"BR","iso_region":"BR-PA","municipality":"Altamira","scheduled_service":"yes","icao_code":"SBHT","iata_code":"ATM","gps_code":"SBHT","local_code":"PA0003","home_link":"https://www4.infraero.gov.br/aeroportos/aeroporto-de-altamira-para/","wikipedia_link":"https://en.wikipedia.org/wiki/Altamira_Airport","keywords":null}
{"id":44191,"ident":"ZWAT","type":"medium_airport","name":"Altay Xuedu Airport","latitude_deg":47.749886,"longitude_deg":88.085808,"elevation_ft":2460,"continent":"AS","iso_country":"CN","iso_region":"CN-65","municipality":"Altay","scheduled_service":"yes","icao_code":"ZWAT","iata_code":"AAT","gps_code":"ZWAT","local_code":null,"home_link":null,"wikipedia_link":"https://en.wikipedia.org/wiki/Altay_Xuedu_Airport","keywords":"Altay Air Base"}
{"id":3380,"ident":"KAOO","type":"medium_airport","name":"Altoona Blair County Airport","latitude_deg":40.296398,"longitude_deg":-78.32,"elevation_ft":1503,"continent":"NA","iso_country":"US","iso_region":"US-PA","municipality":"Altoona","scheduled_service":"yes","icao_code":"KAOO","iata_code":"AOO","gps_code":"KAOO","local_code":"AOO","home_link":null,"wikipedia_link":"https://en.wikipedia.org/wiki/Altoona-Blair_County_Airport","keywords":null}
{"id":3168,"ident":"HAMK","type":"medium_airport","name":"Alula Aba Nega Airport","latitude_deg":13.4674,"longitude_deg":39.533501,"elevation_ft":7396,"continent":"AF","iso_country":"ET","iso_region":"ET-TI","municipality":"Mekele","scheduled_service":"yes","icao_code":"HAMK","iata_code":"MQX","gps_code":"HAMK","local_code":null,"home_link":null,"wikipedia_link":"https://en.wikipedia.org/wiki/Alula_Aba_Airport","keywords":null}
{"id":314558,"ident":"AXF","type":"medium_airport","name":"Alxa Left Banner Bayanhot Airport","latitude_deg":38.74831,"longitude_deg":105.58858,"elevation_ft":4560,"continent":"AS","iso_country":"CN","iso_region":"CN-15","municipality":"Bayanhot","scheduled_service":"yes","icao_code":"ZBAL","iata_code":"AXF","gps_code":"ZBAL","local_code":null,"home_link":null,"wikipedia_link":"https://en.wikipedia.org/wiki/Alxa_Left_Banner_Bayanhot_Airport","keywords":null}
{"id":314557,"ident":"RHT","type":"small_airport","name":"Alxa Right Banner Badanjilin Airport","latitude_deg":39.225,"longitude_deg":101.546,"elevation_ft":4659,"continent":"AS","iso_country":"CN","iso_region":"CN-15","municipality":"Badanjilin","scheduled_service":"yes","icao_code":"ZBAR","iata_code":"RHT","gps_code":"ZBAR","local_code":null,"home_link":null,"wikipedia_link":"https://en.wikipedia.org/wiki/Alxa_Right_Banner_Badanjilin_Airport","keywords":null}
{"id":4708,"ident":"MMEP","type":"medium_airport","name":"Amado Nervo National Airport","latitude_deg":21.419833,"longitude_deg":-104.842472,"elevation_ft":3020,"continent":"NA","iso_country":"MX","iso_region":"MX-NAY","municipality":"Tepic","scheduled_service":"yes","icao_code":"MMEP","iata_code":"TPQ","gps_code":"MMEP","local_code":"TNY","home_link":"http://tepic.asa.gob.mx/wb/webasa/tepic_aeropuertos","wikipedia_link":"https://en.wikipedia.org/wiki/Amado_Nervo_National_Airport","keywords":"Tepic Airport"}
{"id":5553,"ident":"RJDA","type":"small_airport","name":"Amakusa Airport","latitude_deg":32.482498,"longitude_deg":130.158997,"elevation_ft":340,"continent":"AS","iso_country":"JP","iso_region":"JP-43","municipality":"Amakusa","scheduled_service":"yes","icao_code":"RJDA","iata_code":"AXJ","gps_code":"RJDA","local_code":null,"home_link":null,"wikipedia_link":"https://en.wikipedia.org/wiki/Amakusa_Airfield","keywords":null}
{"id":5577,"ident":"RJKA","type":"medium_airport","name":"Amami Airport","latitude_deg":28.430599212646484,"longitude_deg":129.71299743652344,"elevation_ft":27,"continent":"AS","iso_country":"JP","iso_region":"JP-46","municipality":"Amami","scheduled_service":"yes","icao_code":"RJKA","iata_code":"ASJ","gps_code":"RJKA","local_code":null,"home_link":null,"wikipedia_link":"https://en.wikipedia.org/wiki/Amami_Airport","keywords":null}
{"id":4520,"ident":"LTAP","type":"small_airport","name":"Amasya Merzifon Airport","latitude_deg":40.829399,"longitude_deg":35.521999,"elevation_ft":1758,"continent":"AS","iso_country":"TR","iso_region":"TR-05","municipality":"Amasya","scheduled_service":"yes","icao_code":"LTAP","iata_code":"MZH","gps_code":"LTAP","local_code":null,"home_link":"http://www.merzifon.dhmi.gov.tr/havaalanlari/default.aspx?hv=15","wikipedia_link":"https://en.wikipedia.org/wiki/Merzifon_Airport","keywords":null}
{"id":5363,"ident":"PAFM","type":"medium_airport","name":"Ambler Airport","latitude_deg":67.105529,"longitude_deg":-157.855339,"elevation_ft":334,"continent":"NA","iso_country":"US","iso_region":"US-AK","municipality":"Ambler","scheduled_service":"yes","icao_code":"PAFM","iata_code":"ABL","gps_code":"PAFM","local_code":"AFM","home_link":null,"wikipedia_link":"https://en.wikipedia.org/wiki/Ambler_Airport","keywords":"Z60"}
{"id":2919,"ident":"FMNM","type":"medium_airport","name":"Amborovy Airport","latitude_deg":-15.666842,"longitude_deg":46.351233,"elevation_ft":87,"continent":"AF","iso_country":"MG","iso_region":"MG-M","municipality":"Mahajanga","scheduled_service":"yes","icao_code":"FMNM","iata_code":"MJN","gps_code":"FMNM","local_code":null,"home_link":null,"wikipedia_link":"https://en.wikipedia.org/wiki/Amborovy_Airport","keywords":"Philibert Tsiranana Airport, Mahajanga"}
{"id":28481,"ident":"HKAM","type":"medium_airport","name":"Amboseli Airport","latitude_deg":-2.645050048828125,"longitude_deg":37.25310134887695,"elevation_ft":3755,"continent":"AF","iso_country":"KE","iso_region":"KE-700","municipality":"Amboseli National Park","scheduled_service":"yes","icao_code":"HKAM","iata_code":"ASV","gps_code":"HKAM","local_code":null,"home_link":null,"wikipedia_link":"https://en.wikipedia.org/wiki/Amboseli_Airport","keywords":"Maasai Amboseli Game Reserve"}
{"id":30643,"ident":"ULDD","type":"medium_airport","name":"Amderma Airport","latitude_deg":69.76329803466797,"longitude_deg":61.556400299072266,"elevation_ft":13,"continent":"AS","iso_country":"RU","iso_region":"RU-NEN","municipality":"Amderma","scheduled_service":"yes","icao_code":"ULDD","iata_code":"AMV","gps_code":"ULDD","local_code":null,"home_link":null,"wikipedia_link":"https://en.wikipedia.org/wiki/Amderma_Airport","keywords":null}
{"id":5213,"ident":"OJAM","type":"medium_airport","name":"Amman Civil (Marka International) Airport","latitude_deg":31.9727,"longitude_deg":35.9916,"elevation_ft":2555,"continent":"AS","iso_country":"JO","iso_region":"JO-AM","municipality":"Amman","scheduled_service":"yes","icao_code":"OJAM","iata_code":"ADJ","gps_code":"OJAM","local_code":null,"home_link":null,"wikipedia_link":"https://en.wikipedia.org/wiki/Amman_Civil_Airport","keywords":"King Abdullah Air Base"}
{"id":44047,"ident":"BGAS","type":"heliport","name":"Ammassivik Heliport","latitude_deg":60.597376,"longitude_deg":-45.382445,"elevation_ft":71,"continent":"NA","iso_country":"GL","iso_region":"GL-KU","municipality":"Ammassivik","scheduled_service":"yes","icao_code":null,"iata_code":"QUW","gps_code":"BGAS","local_code":null,"home_link":null,"wikipedia_link":"https://en.wikipedia.org/wiki/Ammassivik_Heliport","keywords":"Angmagssivik, Sletten"}
{"id":16174,"ident":"AK81","type":"seaplane_base","name":"Amook Bay Seaplane Base","latitude_deg":57.4715003967,"longitude_deg":-153.815002441,"elevation_ft":null,"continent":"NA","iso_country":"US","iso_region":"US-AK","municipality":"Amook Bay","scheduled_service":"yes","icao_code":null,"iata_code":"AOS","gps_code":"AK81","local_code":"AK81","home_link":null,"wikipedia_link":"https://en.wikipedia.org/wiki/Amook_Bay_Seaplane_Base","keywords":null}
{"id":2513,"ident":"EHAM","type":"large_airport","name":"Amsterdam Airport Schiphol","latitude_deg":52.308601,"longitude_deg":4.76389,"elevation_ft":-11,"continent":"EU","iso_country":"NL","iso_region":"NL-NH","municipality":"Amsterdam","scheduled_service":"yes","icao_code":"EHAM","iata_code":"AMS","gps_code":"EHAM","local_code":null,"home_link":"https://www.schiphol.nl/","wikipedia_link":"https://en.wikipedia.org/wiki/Amsterdam_Airport_Schiphol","keywords":null}
{"id":3150,"ident":"GVAC","type":"large_airport","name":"Amílcar Cabral International Airport","latitude_deg":16.7414,"longitude_deg":-22.9494,"elevation_ft":177,"continent":"AF","iso_country":"CV","iso_region":"CV-B","municipality":"Espargos","scheduled_service":"yes","icao_code":"GVAC","iata_code":"SID","gps_code":"GVAC","local_code":null,"home_link":null,"wikipedia_link":"https://en.wikipedia.org/wiki/Am%C3%ADlcar_Cabral_International_Airport","keywords":"Sal Island"}
{"id":4983,"ident":"NTGA","type":"medium_airport","name":"Anaa Airport","latitude_deg":-17.3526,"longitude_deg":-145.509995,"elevation_ft":10,"continent":"OC","iso_country":"PF","iso_region":"PF-U-A","municipality":"Anaa","scheduled_service":"yes","icao_code":"NTGA","iata_code":"AAA","gps_code":"NTGA","local_code":null,"home_link":null,"wikipedia_link":"https://en.wikipedia.org/wiki/Anaa_Airport","keywords":null}
{"id":19030,"ident":"K74S","type":"small_airport","name":"Anacortes Airport","latitude_deg":48.498513,"longitude_deg":-122.662513,"elevation_ft":241,"continent":"NA","iso_country":"US","iso_region":"US-WA","municipality":"Anacortes","scheduled_service":"yes","icao_code":null,"iata_code":"OTS","gps_code":"K74S","local_code":"74S","home_link":"https://www.portofanacortes.com/airport","wikipedia_link":"https://en.wikipedia.org/wiki/Anacortes_Airport","keywords":null}
{"id":4547,"ident":"LTBY","type":"medium_airport","name":"Anadolu Airport","latitude_deg":39.809898,"longitude_deg":30.5194,"elevation_ft":2588,"continent":"AS","iso_country":"TR","iso_region":"TR-26","municipality":"Eskişehir","scheduled_service":"yes","icao_code":"LTBY","iata_code":"AOE","gps_code":"LTBY","local_code":null,"home_link":null,"wikipedia_link":"https://en.wikipedia.org/wiki/Anadolu_Airport","keywords":null}
{"id":624,"ident":"CAJ4","type":"medium_airport","name":"Anahim Lake Airport","latitude_deg":52.451501,"longitude_deg":-125.303776,"elevation_ft":3635,"continent":"NA","iso_country":"CA","iso_region":"CA-BC","municipality":"Anahim Lake","scheduled_service":"yes","icao_code":null,"iata_code":"YAA","gps_code":"CAJ4","local_code":"CAJ4","home_link":null,"wikipedia_link":"https://en.wikipedia.org/wiki/Anahim_Lake_Airport","keywords":"AJ4"}
{"id":5381,"ident":"PAKP","type":"medium_airport","name":"Anaktuvuk Pass Airport","latitude_deg":68.133598,"longitude_deg":-151.742996,"elevation_ft":2102,"continent":"NA","iso_country":"US","iso_region":"US-AK","municipality":"Anaktuvuk Pass","scheduled_service":"yes","icao_code":"PAKP","iata_code":"AKP","gps_code":"PAKP","local_code":"AKP","home_link":null,"wikipedia_link":"https://en.wikipedia.org/wiki/Anaktuvuk_Pass_Airport","keywords":null}
{"id":6511,"ident":"URKA","type":"medium_airport","name":"Anapa Vityazevo Airport","latitude_deg":45.002102,"longitude_deg":37.347301,"elevation_ft":174,"continent":"EU","iso_country":"RU","iso_region":"RU-KDA","municipality":"Krasnyi Kurgan","scheduled_service":"yes","icao_code":"URKA","iata_code":"AAQ","gps_code":"URKA","local_code":null,"home_link":"https://www.aaqaero.ru/en/","wikipedia_link":"https://en.wikipedia.org/wiki/Anapa_Airport","keywords":"Vityazevo Airport"}
{"id":6215,"ident":"SPHY","type":"small_airport","name":"Andahuaylas Airport","latitude_deg":-13.706399917602539,"longitude_deg":-73.35040283203125,"elevation_ft":11300,"continent":"SA","iso_country":"PE","iso_region":"PE-APU","municipality":"Andahuaylas","scheduled_service":"yes","icao_code":"SPHY","iata_code":"ANS","gps_code":"SPHY","local_code":null,"home_link":null,"wikipedia_link":"https://en.wikipedia.org/wiki/Andahuaylas_Airport","keywords":null}
{"id":30672,"ident":"UTKA","type":"medium_airport","name":"Andizhan Airport","latitude_deg":40.727699,"longitude_deg":72.293999,"elevation_ft":1515,"continent":"AS","iso_country":"UZ","iso_region":"UZ-AN","municipality":"Andizhan","scheduled_service":"yes","icao_code":null,"iata_code":"AZN","gps_code":"UTFA","local_code":null,"home_link":null,"wikipedia_link":"https://en.wikipedia.org/wiki/Andizhan_Airport","keywords":"UTKA, Andijan Airport"}
{"id":37796,"ident":"SWBG","type":"small_airport","name":"André Antônio Maggi Airport","latitude_deg":-15.1934,"longitude_deg":-59.3848,"elevation_ft":870,"continent":"SA","iso_country":"BR","iso_region":"BR-MT","municipality":"Pontes e Lacerda","scheduled_service":"yes","icao_code":null,"iata_code":"LCB","gps_code":"SWBG","local_code":"MT0009","home_link":null,"wikipedia_link":"https://en.wikipedia.org/wiki/Pontes_e_Lacerda_Airport","keywords":"União do Vale Airport"}
{"id":6291,"ident":"SVIE","type":"small_airport","name":"Andrés Miguel Salazar Marcano Airport","latitude_deg":10.794432,"longitude_deg":-63.98159,"elevation_ft":10,"continent":"SA","iso_country":"VE","iso_region":"VE-O","municipality":"Isla de Coche","scheduled_service":"yes","icao_code":"SVIE","iata_code":"ICC","gps_code":"SVIE","local_code":null,"home_link":null,"wikipedia_link":"https://en.wikipedia.org/wiki/Andr%C3%A9s_Miguel_Salazar_Marcano_Airport","keywords":null}
{"id":6018,"ident":"SCFA","type":"medium_airport","name":"Andrés Sabella Gálvez International Airport","latitude_deg":-23.444501,"longitude_deg":-70.445099,"elevation_ft":455,"continent":"SA","iso_country":"CL","iso_region":"CL-AN","municipality":"Antofagasta","scheduled_service":"yes","icao_code":"SCFA","iata_code":"ANF","gps_code":"SCFA","local_code":null,"home_link":null,"wikipedia_link":"https://en.wikipedia.org/wiki/Andr%C3%A9s_Sabella_G%C3%A1lvez_International_Airport","keywords":"Cerro Moreno Airport"}
{"id":2565,"ident":"ENAN","type":"medium_airport","name":"Andøya Airport, Andenes","latitude_deg":69.292503,"longitude_deg":16.144199,"elevation_ft":43,"continent":"EU","iso_country":"NO","iso_region":"NO-18","municipality":"Andenes","scheduled_service":"yes","icao_code":"ENAN","iata_code":"ANX","gps_code":"ENAN","local_code":null,"home_link":"https://avinor.no/en/airport/andoya-airport/","wikipedia_link":"https://en.wikipedia.org/wiki/And%C3%B8ya_Airport%2C_Andenes","keywords":null}
{"id":43048,"ident":"MMTG","type":"medium_airport","name":"Angel Albino Corzo International Airport","latitude_deg":16.5636005402,"longitude_deg":-93.02249908450001,"elevation_ft":1499,"continent":"NA","iso_country":"MX","iso_region":"MX-CHP","municipality":"Tuxtla Gutiérrez","scheduled_service":"yes","icao_code":"MMTG","iata_code":"TGZ","gps_code":"MMTG","local_code":"TGZ","home_link":"http://www.chiapas.aero/index.html","wikipedia_link":"https://en.wikipedia.org/wiki/Angel_Albino_Corzo_International_Airport","keywords":null}
{"id":16093,"ident":"PAGN","type":"seaplane_base","name":"Angoon Seaplane Base","latitude_deg":57.497097,"longitude_deg":-134.56722,"elevation_ft":null,"continent":"NA","iso_country":"US","iso_region":"US-AK","municipality":"Angoon","scheduled_service":"yes","icao_code":"PAGN","iata_code":"AGN","gps_code":"PAGN","local_code":"AGN","home_link":null,"wikipedia_link":"https://en.wikipedia.org/wiki/Angoon_Seaplane_Base","keywords":null}
{"id":16291,"ident":"PANI","type":"medium_airport","name":"Aniak Airport","latitude_deg":61.581600189208984,"longitude_deg":-159.54299926757812,"elevation_ft":88,"continent":"NA","iso_country":"US","iso_region":"US-AK","municipality":"Aniak","scheduled_service":"yes","icao_code":"PANI","iata_code":"ANI","gps_code":"PANI","local_code":"ANI","home_link":null,"wikipedia_link":"https://en.wikipedia.org/wiki/Aniak_Airport","keywords":null}
{"id":30632,"ident":"ZLAK","type":"small_airport","name":"Ankang Fuqiang Airport","latitude_deg":32.75696,"longitude_deg":108.87338,"elevation_ft":1209,"continent":"AS","iso_country":"CN","iso_region":"CN-61","municipality":"Ankang (Hanbin)","scheduled_service":"yes","icao_code":"ZLAK","iata_code":"AKA","gps_code":"ZLAK","local_code":null,"home_link":null,"wikipedia_link":"https://en.wikipedia.org/wiki/Ankang_Fuqiang_Airport","keywords":null}
{"id":2060,"ident":"DABB","type":"medium_airport","name":"Annaba Rabah Bitat Airport","latitude_deg":36.826781,"longitude_deg":7.81334,"elevation_ft":16,"continent":"AF","iso_country":"DZ","iso_region":"DZ-23","municipality":"Annaba","scheduled_service":"yes","icao_code":"DABB","iata_code":"AAE","gps_code":"DABB","local_code":null,"home_link":null,"wikipedia_link":"https://en.wikipedia.org/wiki/Rabah_Bitat_Airport","keywords":"Les Salines Airport, El Mellah Airport, Annabah"}
{"id":4141,"ident":"LFLP","type":"medium_airport","name":"Annecy Haute-Savoie Mont Blanc Airport","latitude_deg":45.928947,"longitude_deg":6.0987,"elevation_ft":1521,"continent":"EU","iso_country":"FR","iso_region":"FR-ARA","municipality":"Epagny Metz-Tessy","scheduled_service":"yes","icao_code":"LFLP","iata_code":"NCY","gps_code":"LFLP","local_code":null,"home_link":"https://www.annecy-airport.com/en","wikipedia_link":"https://en.wikipedia.org/wiki/Annecy_-_Haute-Savoie_-_Mont_Blanc_Airport","keywords":"Annecy-Meythet"}
{"id":313672,"ident":"FGAB","type":"small_airport","name":"Annobón Airport","latitude_deg":-1.408615,"longitude_deg":5.624163,"elevation_ft":82,"continent":"AF","iso_country":"GQ","iso_region":"GQ-AN","municipality":"San Antonio de Palé","scheduled_service":"yes","icao_code":null,"iata_code":"NBN","gps_code":"FGAN","local_code":null,"home_link":null,"wikipedia_link":"https://en.wikipedia.org/wiki/Annob%C3%B3n_Airport","keywords":"FG01, FGAB ?"}
{"id":30650,"ident":"ZSAQ","type":"medium_airport","name":"Anqing Tianzhushan Airport / Anqing North Air Base","latitude_deg":30.582199,"longitude_deg":117.050003,"elevation_ft":null,"continent":"AS","iso_country":"CN","iso_region":"CN-34","municipality":"Anqing","scheduled_service":"yes","icao_code":"ZSAQ","iata_code":"AQG","gps_code":"ZSAQ","local_code":null,"home_link":null,"wikipedia_link":"https://en.wikipedia.org/wiki/Anqing_Tianzhushan_Airport","keywords":null}
{"id":30646,"ident":"ZYAS","type":"medium_airport","name":"Anshan Teng'ao Airport / Anshan Air Base","latitude_deg":41.105301,"longitude_deg":122.853996,"elevation_ft":null,"continent":"AS","iso_country":"CN","iso_region":"CN-21","municipality":"Anshan","scheduled_service":"yes","icao_code":"ZYAS","iata_code":"AOG","gps_code":"ZYAS","local_code":null,"home_link":null,"wikipedia_link":"https://en.wikipedia.org/wiki/Anshan_Teng%27ao_Airport","keywords":null}
{"id":300785,"ident":"ZUAS","type":"medium_airport","name":"Anshun Huangguoshu Airport","latitude_deg":26.260556,"longitude_deg":105.873333,"elevation_ft":4812,"continent":"AS","iso_country":"CN","iso_region":"CN-52","municipality":"Anshun (Xixiu)","scheduled_service":"yes","icao_code":"ZUAS","iata_code":"AVA","gps_code":"ZUAS","local_code":null,"home_link":null,"wikipedia_link":"https://en.wikipedia.org/wiki/Anshun_Huangguoshu_Airport","keywords":null}
{"id":4515,"ident":"LTAI","type":"large_airport","name":"Antalya International Airport","latitude_deg":36.898701,"longitude_deg":30.800501,"elevation_ft":177,"continent":"AS","iso_country":"TR","iso_region":"TR-07","municipality":"Antalya","scheduled_service":"yes","icao_code":"LTAI","iata_code":"AYT","gps_code":"LTAI","local_code":null,"home_link":"http://www.antalya.dhmi.gov.tr/havaalanlari/default.aspx?hv=4","wikipedia_link":"https://en.wikipedia.org/wiki/Antalya_Airport","keywords":null}
{"id":5826,"ident":"SAVN","type":"small_airport","name":"Antoine de Saint Exupéry Airport","latitude_deg":-40.7512,"longitude_deg":-65.0343,"elevation_ft":85,"continent":"SA","iso_country":"AR","iso_region":"AR-R","municipality":"San Antonio Oeste","scheduled_service":"yes","icao_code":"SAVN","iata_code":"OES","gps_code":"SAVN","local_code":"SAN","home_link":null,"wikipedia_link":"https://en.wikipedia.org/wiki/Antoine_de_Saint_Exupéry_Airport","keywords":null}
{"id":4822,"ident":"MTCA","type":"medium_airport","name":"Antoine-Simon International Airport","latitude_deg":18.271099,"longitude_deg":-73.7883,"elevation_ft":203,"continent":"NA","iso_country":"HT","iso_region":"HT-SD","municipality":"Les Cayes","scheduled_service":"yes","icao_code":"MTCA","iata_code":"CYA","gps_code":"MTCA","local_code":null,"home_link":null,"wikipedia_link":"https://en.wikipedia.org/wiki/Antoine-Simon_Airport","keywords":null}
{"id":2871,"ident":"FCPP","type":"medium_airport","name":"Antonio Agostinho-Neto International Airport","latitude_deg":-4.81603,"longitude_deg":11.8866,"elevation_ft":55,"continent":"AF","iso_country":"CG","iso_region":"CG-5","municipality":"Pointe Noire","scheduled_service":"yes","icao_code":"FCPP","iata_code":"PNR","gps_code":"FCPP","local_code":null,"home_link":null,"wikipedia_link":"https://en.wikipedia.org/wiki/Agostinho-Neto_International_Airport","keywords":"Pointe Noire"}
{"id":5433,"ident":"PGUM","type":"large_airport","name":"Antonio B. Won Pat International Airport","latitude_deg":13.485,"longitude_deg":144.797282,"elevation_ft":298,"continent":"OC","iso_country":"GU","iso_region":"GU-U-A","municipality":"Hagåtña","scheduled_service":"yes","icao_code":"PGUM","iata_code":"GUM","gps_code":"PGUM","local_code":"GUM","home_link":"http://www.guamairport.com/","wikipedia_link":"https://en.wikipedia.org/wiki/Antonio_B._Won_Pat_International_Airport","keywords":"NGM, NAS Agana"}
{"id":4835,"ident":"MUCU","type":"medium_airport","name":"Antonio Maceo International Airport","latitude_deg":19.96980094909668,"longitude_deg":-75.83540344238281,"elevation_ft":249,"continent":"NA","iso_country":"CU","iso_region":"CU-13","municipality":"Santiago","scheduled_service":"yes","icao_code":"MUCU","iata_code":"SCU","gps_code":"MUCU","local_code":null,"home_link":null,"wikipedia_link":"https://en.wikipedia.org/wiki/Antonio_Maceo_Airport","keywords":null}
{"id":6154,"ident":"SKPS","type":"medium_airport","name":"Antonio Nariño Airport","latitude_deg":1.39625,"longitude_deg":-77.2915,"elevation_ft":5951,"continent":"SA","iso_country":"CO","iso_region":"CO-NAR","municipality":"Chachagüí","scheduled_service":"yes","icao_code":"SKPS","iata_code":"PSO","gps_code":"SKPS","local_code":"PSO","home_link":null,"wikipedia_link":"https://en.wikipedia.org/wiki/Antonio_Nari%C3%B1o_Airport","keywords":"Pasto"}
{"id":6385,"ident":"TJVQ","type":"medium_airport","name":"Antonio Rivera Rodriguez Airport","latitude_deg":18.1348,"longitude_deg":-65.493599,"elevation_ft":49,"continent":"NA","iso_country":"PR","iso_region":"PR-U-A","municipality":"Vieques","scheduled_service":"yes","icao_code":"TJVQ","iata_code":"VQS","gps_code":"TJVQ","local_code":"VQS","home_link":"https://vieques.com/airport-vieques/","wikipedia_link":"https://en.wikipedia.org/wiki/Antonio_Rivera_Rodr%C3%ADguez_Airport","keywords":null}
{"id":6127,"ident":"SKLC","type":"medium_airport","name":"Antonio Roldán Betancur Airport","latitude_deg":7.81196,"longitude_deg":-76.7164,"elevation_ft":46,"continent":"SA","iso_country":"CO","iso_region":"CO-ANT","municipality":"Carepa","scheduled_service":"yes","icao_code":"SKLC","iata_code":"APO","gps_code":"SKLC","local_code":"APO","home_link":null,"wikipedia_link":"https://en.wikipedia.org/wiki/Antonio_Rold%C3%A1n_Betancur_Airport","keywords":null}
{"id":2152,"ident":"EBAW","type":"medium_airport","name":"Antwerp International Airport (Deurne)","latitude_deg":51.190667,"longitude_deg":4.463153,"elevation_ft":39,"continent":"EU","iso_country":"BE","iso_region":"BE-VAN","municipality":"Antwerp","scheduled_service":"yes","icao_code":"EBAW","iata_code":"ANR","gps_code":"EBAW","local_code":null,"home_link":"http://www.antwerp-airport.be/","wikipedia_link":"https://en.wikipedia.org/wiki/Antwerp_International_Airport","keywords":null}
{"id":5392,"ident":"PANV","type":"medium_airport","name":"Anvik Airport","latitude_deg":62.646702,"longitude_deg":-160.190994,"elevation_ft":291,"continent":"NA","iso_country":"US","iso_region":"US-AK","municipality":"Anvik","scheduled_service":"yes","icao_code":"PANV","iata_code":"ANV","gps_code":"PANV","local_code":"ANV","home_link":null,"wikipedia_link":"https://en.wikipedia.org/wiki/Anvik_Airport","keywords":null}
{"id":518484,"ident":"ZHQQ","type":"small_airport","name":"Anyang Hongqiqu Airport","latitude_deg":35.870833,"longitude_deg":114.461944,"elevation_ft":null,"continent":"AS","iso_country":"CN","iso_region":"CN-41","municipality":"Anyang","scheduled_service":"yes","icao_code":"ZHQQ","iata_code":"HQQ","gps_code":"ZHQQ","local_code":null,"home_link":null,"wikipedia_link":"https://en.wikipedia.org/wiki/Anyang_Hongqiqu_Airport","keywords":null}
{"id":5605,"ident":"RJSA","type":"medium_airport","name":"Aomori Airport","latitude_deg":40.73469924926758,"longitude_deg":140.6909942626953,"elevation_ft":664,"continent":"AS","iso_country":"JP","iso_region":"JP-02","municipality":"Aomori","scheduled_service":"yes","icao_code":"RJSA","iata_code":"AOJ","gps_code":"RJSA","local_code":null,"home_link":null,"wikipedia_link":"https://en.wikipedia.org/wiki/Aomori_Airport","keywords":null}
{"id":30648,"ident":"NTGD","type":"small_airport","name":"Apataki Airport","latitude_deg":-15.5736,"longitude_deg":-146.414993,"elevation_ft":8,"continent":"OC","iso_country":"PF","iso_region":"PF-U-A","municipality":"Apataki","scheduled_service":"yes","icao_code":"NTGD","iata_code":"APK","gps_code":"NTGD","local_code":null,"home_link":null,"wikipedia_link":"https://en.wikipedia.org/wiki/Apataki_Airport","keywords":null}
{"id":19320,"ident":"KATW","type":"medium_airport","name":"Appleton International Airport","latitude_deg":44.258099,"longitude_deg":-88.519096,"elevation_ft":918,"continent":"NA","iso_country":"US","iso_region":"US-WI","municipality":"Appleton","scheduled_service":"yes","icao_code":"KATW","iata_code":"ATW","gps_code":"KATW","local_code":"ATW","home_link":"http://atwairport.com/","wikipedia_link":"https://en.wikipedia.org/wiki/Outagamie_County_Regional_Airport","keywords":"Outagamie County Regional Airport"}
{"id":5214,"ident":"OJAQ","type":"medium_airport","name":"Aqaba King Hussein International Airport","latitude_deg":29.611600875854492,"longitude_deg":35.01810073852539,"elevation_ft":175,"continent":"AS","iso_country":"JO","iso_region":"JO-AQ","municipality":"Aqaba","scheduled_service":"yes","icao_code":"OJAQ","iata_code":"AQJ","gps_code":"OJAQ","local_code":null,"home_link":null,"wikipedia_link":"https://en.wikipedia.org/wiki/Aqaba_Airport","keywords":null}
{"id":5862,"ident":"SBAR","type":"medium_airport","name":"Aracaju - Santa Maria International Airport","latitude_deg":-10.984,"longitude_deg":-37.070301,"elevation_ft":139,"continent":"SA","iso_country":"BR","iso_region":"BR-SE","municipality":"Aracaju","scheduled_service":"yes","icao_code":"SBAR","iata_code":"AJU","gps_code":"SBAR","local_code":"SE0001","home_link":"https://www.aenabrasil.com.br/pt/aeroportos/aeroporto-internacional-santa-maria-aracaju/index.html","wikipedia_link":"https://en.wikipedia.org/wiki/Santa_Maria_Airport_(Sergipe)","keywords":null}
{"id":4471,"ident":"LRAR","type":"medium_airport","name":"Arad International Airport","latitude_deg":46.176601,"longitude_deg":21.261999,"elevation_ft":352,"continent":"EU","iso_country":"RO","iso_region":"RO-AR","municipality":"Arad","scheduled_service":"yes","icao_code":"LRAR","iata_code":"ARW","gps_code":"LRAR","local_code":null,"home_link":null,"wikipedia_link":"https://en.wikipedia.org/wiki/Arad_International_Airport","keywords":null}
{"id":538,"ident":"SWGN","type":"medium_airport","name":"Araguaína Airport","latitude_deg":-7.22787,"longitude_deg":-48.240501,"elevation_ft":771,"continent":"SA","iso_country":"BR","iso_region":"BR-TO","municipality":"Araguaína","scheduled_service":"yes","icao_code":"SWGN","iata_code":"AUX","gps_code":"SWGN","local_code":"TO0002","home_link":null,"wikipedia_link":"https://en.wikipedia.org/wiki/Aragua%C3%ADna_Airport","keywords":null}
{"id":354654,"ident":"ZWAL","type":"small_airport","name":"Aral Tarim Airport","latitude_deg":40.434748,"longitude_deg":81.26206,"elevation_ft":null,"continent":"AS","iso_country":"CN","iso_region":"CN-65","municipality":"Aral","scheduled_service":"yes","icao_code":"ZWAL","iata_code":"ACF","gps_code":"ZWAL","local_code":null,"home_link":null,"wikipedia_link":"https://en.wikipedia.org/wiki/Aral_Talim_Airport","keywords":null}
{"id":30607,"ident":"NGUK","type":"small_airport","name":"Aranuka Airport","latitude_deg":0.185278,"longitude_deg":173.636993,"elevation_ft":6,"continent":"OC","iso_country":"KI","iso_region":"KI-G","municipality":"Buariki","scheduled_service":"yes","icao_code":"NGUK","iata_code":"AAK","gps_code":"NGUK","local_code":null,"home_link":null,"wikipedia_link":"https://en.wikipedia.org/wiki/Aranuka_Airport","keywords":"Tarawa"}
{"id":5114,"ident":"OERR","type":"medium_airport","name":"Arar Domestic Airport","latitude_deg":30.906600952148438,"longitude_deg":41.13819885253906,"elevation_ft":1813,"continent":"AS","iso_country":"SA","iso_region":"SA-08","municipality":"Arar","scheduled_service":"yes","icao_code":"OERR","iata_code":"RAE","gps_code":"OERR","local_code":null,"home_link":null,"wikipedia_link":"https://en.wikipedia.org/wiki/Arar_Domestic_Airport","keywords":null}
{"id":5861,"ident":"SBAQ","type":"medium_airport","name":"Araraquara Airport","latitude_deg":-21.812,"longitude_deg":-48.132999,"elevation_ft":2334,"continent":"SA","iso_country":"BR","iso_region":"BR-SP","municipality":"Araraquara","scheduled_service":"yes","icao_code":"SBAQ","iata_code":"AQA","gps_code":"SBAQ","local_code":"SP0012","home_link":"http://www.daesp.sp.gov.br/aeroporto-estadual-de-araraquara-bartolomeu-de-gusmao/","wikipedia_link":"https://en.wikipedia.org/wiki/Araraquara_Airport","keywords":null}
{"id":5865,"ident":"SBAU","type":"medium_airport","name":"Araçatuba Airport","latitude_deg":-21.141479,"longitude_deg":-50.424575,"elevation_ft":1361,"continent":"SA","iso_country":"BR","iso_region":"BR-SP","municipality":"Araçatuba","scheduled_service":"yes","icao_code":"SBAU","iata_code":"ARU","gps_code":"SBAU","local_code":"SP0009","home_link":"http://www.daesp.sp.gov.br/aeroporto-estadual-de-aracatuba-dario-guarita/","wikipedia_link":"https://en.wikipedia.org/wiki/Ara%C3%A7atuba_Airport","keywords":"Dario Guarita State Airport,"}
{"id":3159,"ident":"HAAM","type":"medium_airport","name":"Arba Minch Airport","latitude_deg":6.03939,"longitude_deg":37.5905,"elevation_ft":3901,"continent":"AF","iso_country":"ET","iso_region":"ET-SN","municipality":"Arba Minch","scheduled_service":"yes","icao_code":"HAAM","iata_code":"AMH","gps_code":"HAAM","local_code":null,"home_link":null,"wikipedia_link":"https://en.wikipedia.org/wiki/Arba_Minch_Airport","keywords":"Gantar, Minghi"}
{"id":46596,"ident":"CYAB","type":"small_airport","name":"Arctic Bay Airport","latitude_deg":73.006101,"longitude_deg":-85.04616,"elevation_ft":72,"continent":"NA","iso_country":"CA","iso_region":"CA-NU","municipality":"Arctic Bay","scheduled_service":"yes","icao_code":"CYAB","iata_code":"YAB","gps_code":"CYAB","local_code":null,"home_link":null,"wikipedia_link":"https://en.wikipedia.org/wiki/Arctic_Bay_Airport","keywords":"CJX7"}
{"id":5402,"ident":"PARC","type":"medium_airport","name":"Arctic Village Airport","latitude_deg":68.1147,"longitude_deg":-145.578995,"elevation_ft":2092,"continent":"NA","iso_country":"US","iso_region":"US-AK","municipality":"Arctic Village","scheduled_service":"yes","icao_code":"PARC","iata_code":"ARC","gps_code":"PARC","local_code":"ARC","home_link":null,"wikipedia_link":"https://en.wikipedia.org/wiki/Arctic_Village_Airport","keywords":null}
{"id":5200,"ident":"OITL","type":"medium_airport","name":"Ardabil Airport","latitude_deg":38.3256988525,"longitude_deg":48.4244003296,"elevation_ft":4315,"continent":"AS","iso_country":"IR","iso_region":"IR-24","municipality":"Ardabil","scheduled_service":"yes","icao_code":"OITL","iata_code":"ADU","gps_code":"OITL","local_code":null,"home_link":null,"wikipedia_link":"https://en.wikipedia.org/wiki/Ardabil_Airport","keywords":null}
{"id":322383,"ident":"TVSA","type":"medium_airport","name":"Argyle International Airport","latitude_deg":13.156695,"longitude_deg":-61.149945,"elevation_ft":136,"continent":"NA","iso_country":"VC","iso_region":"VC-04","municipality":"Kingstown","scheduled_service":"yes","icao_code":"TVSA","iata_code":"SVD","gps_code":"TVSA","local_code":null,"home_link":"http://www.svgiadc.com","wikipedia_link":"https://en.m.wikipedia.org/wiki/Argyle_International_Airport","keywords":null}
{"id":26893,"ident":"YARM","type":"medium_airport","name":"Armidale Airport","latitude_deg":-30.528099060099997,"longitude_deg":151.617004395,"elevation_ft":3556,"continent":"OC","iso_country":"AU","iso_region":"AU-NSW","municipality":"Armidale","scheduled_service":"yes","icao_code":"YARM","iata_code":"ARM","gps_code":"YARM","local_code":null,"home_link":null,"wikipedia_link":"https://en.wikipedia.org/wiki/Armidale_Airport","keywords":null}
{"id":3634,"ident":"KLBE","type":"medium_airport","name":"Arnold Palmer Regional Airport","latitude_deg":40.275902,"longitude_deg":-79.4048,"elevation_ft":1199,"continent":"NA","iso_country":"US","iso_region":"US-PA","municipality":"Latrobe","scheduled_service":"yes","icao_code":"KLBE","iata_code":"LBE","gps_code":"KLBE","local_code":"LBE","home_link":null,"wikipedia_link":"https://en.wikipedia.org/wiki/Arnold_Palmer_Regional_Airport","keywords":null}
{"id":302264,"ident":"AYIQ","type":"small_airport","name":"Aropa Airport","latitude_deg":-6.305417,"longitude_deg":155.728139,"elevation_ft":20,"continent":"OC","iso_country":"PG","iso_region":"PG-NSB","municipality":"Kieta","scheduled_service":"yes","icao_code":"AYIQ","iata_code":"KIE","gps_code":"AYIQ","local_code":"KIA","home_link":null,"wikipedia_link":"https://en.wikipedia.org/wiki/Kieta_Airport","keywords":null}
{"id":2913,"ident":"FMNA","type":"medium_airport","name":"Arrachart Airport","latitude_deg":-12.3494,"longitude_deg":49.291698,"elevation_ft":374,"continent":"AF","iso_country":"MG","iso_region":"MG-D","municipality":"Antisiranana","scheduled_service":"yes","icao_code":"FMNA","iata_code":"DIE","gps_code":"FMNA","local_code":null,"home_link":null,"wikipedia_link":"https://en.wikipedia.org/wiki/Arrachart_Airport","keywords":"Diego-Suárez"}
{"id":4936,"ident":"MYCA","type":"medium_airport","name":"Arthur's Town Airport","latitude_deg":24.6294,"longitude_deg":-75.673797,"elevation_ft":18,"continent":"NA","iso_country":"BS","iso_region":"BS-CI","municipality":"Arthur's Town","scheduled_service":"yes","icao_code":"MYCA","iata_code":"ATC","gps_code":"MYCA","local_code":null,"home_link":null,"wikipedia_link":"https://en.wikipedia.org/wiki/Arthur's_Town_Airport","keywords":null}
{"id":6334,"ident":"SVVA","type":"medium_airport","name":"Arturo Michelena International Airport","latitude_deg":10.14973258972168,"longitude_deg":-67.92839813232422,"elevation_ft":1411,"continent":"SA","iso_country":"VE","iso_region":"VE-G","municipality":"Valencia","scheduled_service":"yes","icao_code":"SVVA","iata_code":"VLN","gps_code":"SVVA","local_code":null,"home_link":null,"wikipedia_link":"https://en.wikipedia.org/wiki/Arturo_Michelena_International_Airport","keywords":null}
{"id":32234,"ident":"HUAR","type":"medium_airport","name":"Arua Airport","latitude_deg":3.049152,"longitude_deg":30.911714,"elevation_ft":3951,"continent":"AF","iso_country":"UG","iso_region":"UG-N","municipality":"Arua","scheduled_service":"yes","icao_code":"HUAR","iata_code":"RUA","gps_code":"HUAR","local_code":null,"home_link":null,"wikipedia_link":"https://en.wikipedia.org/wiki/Arua_Airport","keywords":null}
{"id":3250,"ident":"HTAR","type":"medium_airport","name":"Arusha Airport","latitude_deg":-3.3677899837493896,"longitude_deg":36.63330078125,"elevation_ft":4550,"continent":"AF","iso_country":"TZ","iso_region":"TZ-01","municipality":"Arusha","scheduled_service":"yes","icao_code":"HTAR","iata_code":"ARK","gps_code":"HTAR","local_code":null,"home_link":null,"wikipedia_link":"https://en.wikipedia.org/wiki/Arusha_Airport","keywords":null}
{"id":4994,"ident":"NTGU","type":"medium_airport","name":"Arutua Airport","latitude_deg":-15.248299598693848,"longitude_deg":-146.61700439453125,"elevation_ft":9,"continent":"OC","iso_country":"PF","iso_region":"PF-U-A","municipality":null,"scheduled_service":"yes","icao_code":"NTGU","iata_code":"AXR","gps_code":"NTGU","local_code":null,"home_link":null,"wikipedia_link":"https://en.wikipedia.org/wiki/Arutua_Airport","keywords":null}
{"id":29670,"ident":"ZMAH","type":"medium_airport","name":"Arvaikheer Airport","latitude_deg":46.250301361083984,"longitude_deg":102.802001953125,"elevation_ft":5932,"continent":"AS","iso_country":"MN","iso_region":"MN-055","municipality":"Arvaikheer","scheduled_service":"yes","icao_code":"ZMAH","iata_code":"AVK","gps_code":"ZMAH","local_code":null,"home_link":null,"wikipedia_link":"https://en.wikipedia.org/wiki/Arvaikheer_Airport","keywords":null}
{"id":1718,"ident":"CYEK","type":"small_airport","name":"Arviat Airport","latitude_deg":61.0942,"longitude_deg":-94.070801,"elevation_ft":32,"continent":"NA","iso_country":"CA","iso_region":"CA-NU","municipality":"Arviat","scheduled_service":"yes","icao_code":"CYEK","iata_code":"YEK","gps_code":"CYEK","local_code":null,"home_link":null,"wikipedia_link":"https://en.wikipedia.org/wiki/Arviat_Airport","keywords":null}
{"id":2691,"ident":"ESNX","type":"medium_airport","name":"Arvidsjaur Airport","latitude_deg":65.59030151367188,"longitude_deg":19.28190040588379,"elevation_ft":1245,"continent":"EU","iso_country":"SE","iso_region":"SE-BD","municipality":"Arvidsjaur","scheduled_service":"yes","icao_code":"ESNX","iata_code":"AJR","gps_code":"ESNX","local_code":null,"home_link":null,"wikipedia_link":"https://en.wikipedia.org/wiki/Arvidsjaur_Airport","keywords":null}
{"id":315854,"ident":"ZBES","type":"medium_airport","name":"Arxan Yi'ershi Airport","latitude_deg":47.3106,"longitude_deg":119.9117,"elevation_ft":2925,"continent":"AS","iso_country":"CN","iso_region":"CN-15","municipality":"Arxan","scheduled_service":"yes","icao_code":"ZBES","iata_code":"YIE","gps_code":"ZBES","local_code":null,"home_link":null,"wikipedia_link":"https://en.wikipedia.org/wiki/Arxan_Yi%27ershi_Airport","keywords":null}
{"id":5558,"ident":"RJEC","type":"medium_airport","name":"Asahikawa Airport","latitude_deg":43.670799,"longitude_deg":142.447006,"elevation_ft":721,"continent":"AS","iso_country":"JP","iso_region":"JP-01","municipality":"Higashikagura","scheduled_service":"yes","icao_code":"RJEC","iata_code":"AKJ","gps_code":"RJEC","local_code":null,"home_link":null,"wikipedia_link":"https://en.wikipedia.org/wiki/Asahikawa_Airport","keywords":null}
{"id":3387,"ident":"KAVL","type":"medium_airport","name":"Asheville Regional Airport","latitude_deg":35.436199,"longitude_deg":-82.541801,"elevation_ft":2165,"continent":"NA","iso_country":"US","iso_region":"US-NC","municipality":"Asheville","scheduled_service":"yes","icao_code":"KAVL","iata_code":"AVL","gps_code":"KAVL","local_code":"AVL","home_link":null,"wikipedia_link":"https://en.wikipedia.org/wiki/Asheville_Regional_Airport","keywords":null}
{"id":26380,"ident":"UTAA","type":"large_airport","name":"Ashgabat International Airport","latitude_deg":37.986801,"longitude_deg":58.361,"elevation_ft":692,"continent":"AS","iso_country":"TM","iso_region":"TM-S","municipality":"Ashgabat","scheduled_service":"yes","icao_code":"UTAA","iata_code":"ASB","gps_code":"UTAA","local_code":null,"home_link":null,"wikipedia_link":"https://en.wikipedia.org/wiki/Ashgabat_International_Airport","keywords":"Saparmurat Turkmenbashy International Airport"}
